[
  {
    "opis_id": 7,
    "name": "WOODSHED OF BIG CABIN",
    "city": "Big Cabin",
    "state": "OK",
    "price_per_gallon": 3.00733333,
    "latitude": 36.53787,
    "longitude": -95.22136
  },
  {
    "opis_id": 9,
    "name": "KWIK TRIP #796",
    "city": "Tomah",
    "state": "WI",
    "price_per_gallon": 3.28733333,
    "latitude": 43.97858,
    "longitude": -90.50402
  },
  {
    "opis_id": 20,
    "name": "PILOT TRAVEL CENTER #1243",
    "city": "Gila Bend",
    "state": "AZ",
    "price_per_gallon": 3.899,
    "latitude": 32.94782,
    "longitude": -112.71683
  },
  {
    "opis_id": 28,
    "name": "LITTLEFIELD EXPRESS #2",
    "city": "Fort Smith",
    "state": "AR",
    "price_per_gallon": 3.399,
    "latitude": 35.38592,
    "longitude": -94.39855
  },
  {
    "opis_id": 35,
    "name": "ACI TRUCK STOP",
    "city": "Columbia",
    "state": "NJ",
    "price_per_gallon": 3.079,
    "latitude": 40.92621,
    "longitude": -75.09268
  },
  {
    "opis_id": 36,
    "name": "SHENANDOAH TRUCK CENTER",
    "city": "Mount Jackson",
    "state": "VA",
    "price_per_gallon": 2.899,
    "latitude": 38.74595,
    "longitude": -78.64224
  },
  {
    "opis_id": 44,
    "name": "CIRCLE K #2612042",
    "city": "Jarrell",
    "state": "TX",
    "price_per_gallon": 2.919,
    "latitude": 30.82491,
    "longitude": -97.60445
  },
  {
    "opis_id": 46,
    "name": "PETRO STOPPING CENTER #348",
    "city": "Shorter",
    "state": "AL",
    "price_per_gallon": 3.154,
    "latitude": 32.39486,
    "longitude": -85.9169
  },
  {
    "opis_id": 49,
    "name": "TA SEYMOUR TRAVEL CENTER",
    "city": "Seymour",
    "state": "IN",
    "price_per_gallon": 3.959,
    "latitude": 38.95922,
    "longitude": -85.89025
  },
  {
    "opis_id": 50,
    "name": "TA COUNCIL BLUFFS TRAVEL CENTER",
    "city": "Council Bluffs",
    "state": "IA",
    "price_per_gallon": 3.72566666,
    "latitude": 41.26194,
    "longitude": -95.86083
  },
  {
    "opis_id": 56,
    "name": "TOPS TRUCK STOP",
    "city": "Sterling",
    "state": "ND",
    "price_per_gallon": 3.51566666,
    "latitude": 46.81388,
    "longitude": -100.2915
  },
  {
    "opis_id": 75,
    "name": "Good 2 Go #709",
    "city": "Montrose",
    "state": "CO",
    "price_per_gallon": 3.424,
    "latitude": 38.47832,
    "longitude": -107.87617
  },
  {
    "opis_id": 77,
    "name": "OASIS TRAVEL PLAZA",
    "city": "Laurel",
    "state": "DE",
    "price_per_gallon": 3.229,
    "latitude": 38.5565,
    "longitude": -75.57131
  },
  {
    "opis_id": 79,
    "name": "DELAWARE TRUCK PLAZA",
    "city": "New Castle",
    "state": "DE",
    "price_per_gallon": 3.249,
    "latitude": 39.65948,
    "longitude": -75.56359
  },
  {
    "opis_id": 81,
    "name": "One9 #89",
    "city": "Ellenton",
    "state": "FL",
    "price_per_gallon": 3.439,
    "latitude": 27.52171,
    "longitude": -82.5276
  },
  {
    "opis_id": 85,
    "name": "DOWNIEVILLE FUEL STOP",
    "city": "Dumont",
    "state": "CO",
    "price_per_gallon": 3.459,
    "latitude": 39.76471,
    "longitude": -105.60028
  },
  {
    "opis_id": 91,
    "name": "MOLLYS FOOD & FUEL",
    "city": "Crawfordville",
    "state": "GA",
    "price_per_gallon": 3.499,
    "latitude": 33.55402,
    "longitude": -82.89598
  },
  {
    "opis_id": 105,
    "name": "TA SAGINAW I 75 TRAVEL CENTER",
    "city": "Bridgeport",
    "state": "MI",
    "price_per_gallon": 3.269,
    "latitude": 43.35947,
    "longitude": -83.88164
  },
  {
    "opis_id": 118,
    "name": "Lupton Truck Stop #567",
    "city": "Lupton",
    "state": "AZ",
    "price_per_gallon": 3.299,
    "latitude": 35.35391,
    "longitude": -109.0537
  },
  {
    "opis_id": 121,
    "name": "PETRO STOPPING CENTER #306",
    "city": "Eloy",
    "state": "AZ",
    "price_per_gallon": 3.474,
    "latitude": 32.7559,
    "longitude": -111.55484
  },
  {
    "opis_id": 127,
    "name": "CIRCLE K #4700095",
    "city": "Henderson",
    "state": "KY",
    "price_per_gallon": 3.609,
    "latitude": 37.83615,
    "longitude": -87.59001
  },
  {
    "opis_id": 128,
    "name": "THE EFFINGHAM CHROME SHOP",
    "city": "Effingham",
    "state": "IL",
    "price_per_gallon": 3.349,
    "latitude": 39.12004,
    "longitude": -88.54338
  },
  {
    "opis_id": 135,
    "name": "LOVES TRAVEL STOP #766",
    "city": "Atkinson",
    "state": "IL",
    "price_per_gallon": 3.389,
    "latitude": 41.42087,
    "longitude": -90.01511
  },
  {
    "opis_id": 147,
    "name": "SPEEDWAY #8039",
    "city": "Daleville",
    "state": "IN",
    "price_per_gallon": 3.624,
    "latitude": 40.12115,
    "longitude": -85.55803
  },
  {
    "opis_id": 149,
    "name": "RAYS TRUCK WASH",
    "city": "Fort Wayne",
    "state": "IN",
    "price_per_gallon": 3.59233333,
    "latitude": 41.1306,
    "longitude": -85.12886
  },
  {
    "opis_id": 151,
    "name": "CUBBYS #2101",
    "city": "Gothenburg",
    "state": "NE",
    "price_per_gallon": 3.13233333,
    "latitude": 40.92945,
    "longitude": -100.16068
  },
  {
    "opis_id": 159,
    "name": "PILOT TRAVEL CENTER #87",
    "city": "Jacksonville",
    "state": "FL",
    "price_per_gallon": 3.859,
    "latitude": 30.33218,
    "longitude": -81.65565
  },
  {
    "opis_id": 160,
    "name": "PILOT TRAVEL CENTERS #79",
    "city": "Denham Springs",
    "state": "LA",
    "price_per_gallon": 3.23233333,
    "latitude": 30.4874,
    "longitude": -90.95753
  },
  {
    "opis_id": 164,
    "name": "FLYING J TRAVEL PLAZA #650",
    "city": "Lake Station",
    "state": "IN",
    "price_per_gallon": 3.809,
    "latitude": 41.57504,
    "longitude": -87.23892
  },
  {
    "opis_id": 167,
    "name": "FLYING J TRAVEL PLAZA #653",
    "city": "Hebron",
    "state": "IN",
    "price_per_gallon": 3.43566666,
    "latitude": 41.31865,
    "longitude": -87.20031
  },
  {
    "opis_id": 174,
    "name": "Hop-In Food Stores",
    "city": "Nacogdoches",
    "state": "TX",
    "price_per_gallon": 2.859,
    "latitude": 31.60351,
    "longitude": -94.65549
  },
  {
    "opis_id": 184,
    "name": "SAPP BROS TRAVEL CENTER",
    "city": "Council Bluffs",
    "state": "IA",
    "price_per_gallon": 3.719,
    "latitude": 41.26194,
    "longitude": -95.86083
  },
  {
    "opis_id": 186,
    "name": "COFFEE CUP FUEL STOP #5",
    "city": "Moorcroft",
    "state": "WY",
    "price_per_gallon": 3.239,
    "latitude": 44.26331,
    "longitude": -104.95025
  },
  {
    "opis_id": 187,
    "name": "DUDLEYS CORNER",
    "city": "Latimer",
    "state": "IA",
    "price_per_gallon": 3.23233333,
    "latitude": 42.76331,
    "longitude": -93.36826
  },
  {
    "opis_id": 191,
    "name": "KUM & GO #0302",
    "city": "Clear Lake",
    "state": "IA",
    "price_per_gallon": 3.18566666,
    "latitude": 43.13802,
    "longitude": -93.37937
  },
  {
    "opis_id": 192,
    "name": "Brew Stuart Truckstop",
    "city": "Stuart",
    "state": "IA",
    "price_per_gallon": 3.099,
    "latitude": 41.50332,
    "longitude": -94.31857
  },
  {
    "opis_id": 195,
    "name": "PETRO STOPPING CENTER #311",
    "city": "West Memphis",
    "state": "AR",
    "price_per_gallon": 3.36733333,
    "latitude": 35.14648,
    "longitude": -90.18454
  },
  {
    "opis_id": 198,
    "name": "SINCLAIR",
    "city": "Atwood",
    "state": "CO",
    "price_per_gallon": 3.299,
    "latitude": 40.54776,
    "longitude": -103.26966
  },
  {
    "opis_id": 199,
    "name": "PETRO STOPPING CENTER #366",
    "city": "Salina",
    "state": "KS",
    "price_per_gallon": 3.80566666,
    "latitude": 38.84028,
    "longitude": -97.61142
  },
  {
    "opis_id": 203,
    "name": "PILOT TRAVEL CENTER #31",
    "city": "Highland",
    "state": "IN",
    "price_per_gallon": 3.799,
    "latitude": 41.55365,
    "longitude": -87.45198
  },
  {
    "opis_id": 207,
    "name": "MARATHON",
    "city": "Sardinia",
    "state": "OH",
    "price_per_gallon": 3.56566666,
    "latitude": 39.00784,
    "longitude": -83.80854
  },
  {
    "opis_id": 216,
    "name": "CIRCLE K #2721593",
    "city": "Ocean Springs",
    "state": "MS",
    "price_per_gallon": 3.41566666,
    "latitude": 30.41131,
    "longitude": -88.82781
  },
  {
    "opis_id": 217,
    "name": "NORTH 9TH 24/7",
    "city": "Salina",
    "state": "KS",
    "price_per_gallon": 3.02566666,
    "latitude": 38.84028,
    "longitude": -97.61142
  },
  {
    "opis_id": 231,
    "name": "DERBY CITYS TRUCK PLAZA",
    "city": "Mount Vernon",
    "state": "KY",
    "price_per_gallon": 2.999,
    "latitude": 38.02563,
    "longitude": -84.49522
  },
  {
    "opis_id": 235,
    "name": "PILOT TRAVEL CENTERS #92",
    "city": "Ocala",
    "state": "FL",
    "price_per_gallon": 3.359,
    "latitude": 29.1872,
    "longitude": -82.14009
  },
  {
    "opis_id": 240,
    "name": "LA 1 SOUTH TRUCKSTOP",
    "city": "Port Allen",
    "state": "LA",
    "price_per_gallon": 3.039,
    "latitude": 30.45214,
    "longitude": -91.21011
  },
  {
    "opis_id": 243,
    "name": "SAVE",
    "city": "Lake Village",
    "state": "IN",
    "price_per_gallon": 3.179,
    "latitude": 41.13753,
    "longitude": -87.44864
  },
  {
    "opis_id": 244,
    "name": "BIG D TRUCK TRAVEL PLAZA",
    "city": "Duson",
    "state": "LA",
    "price_per_gallon": 2.98233333,
    "latitude": 30.23576,
    "longitude": -92.1854
  },
  {
    "opis_id": 248,
    "name": "Mardi Gras Truck Stop",
    "city": "New Orleans",
    "state": "LA",
    "price_per_gallon": 3.729,
    "latitude": 29.95465,
    "longitude": -90.07507
  },
  {
    "opis_id": 250,
    "name": "GOLDEN OX TRUCK STOP",
    "city": "Hays",
    "state": "KS",
    "price_per_gallon": 3.499,
    "latitude": 38.87918,
    "longitude": -99.32677
  },
  {
    "opis_id": 253,
    "name": "LOVES TRAVEL STOP #450",
    "city": "West Memphis",
    "state": "AR",
    "price_per_gallon": 3.32566666,
    "latitude": 35.14648,
    "longitude": -90.18454
  },
  {
    "opis_id": 256,
    "name": "BFS FOODS #66",
    "city": "Grantsville",
    "state": "MD",
    "price_per_gallon": 3.899,
    "latitude": 39.69508,
    "longitude": -79.15114
  },
  {
    "opis_id": 257,
    "name": "PILOT TRAVEL CENTER #917- TOWN PUMP",
    "city": "Great Falls",
    "state": "MT",
    "price_per_gallon": 3.63566666,
    "latitude": 47.50024,
    "longitude": -111.30081
  },
  {
    "opis_id": 263,
    "name": "CASEYS #3956",
    "city": "Bridgman",
    "state": "MI",
    "price_per_gallon": 3.559,
    "latitude": 41.9431,
    "longitude": -86.55697
  },
  {
    "opis_id": 267,
    "name": "CORNER MARKET #117",
    "city": "Dodge City",
    "state": "KS",
    "price_per_gallon": 3.399,
    "latitude": 37.7528,
    "longitude": -100.01708
  },
  {
    "opis_id": 269,
    "name": "PILOT TRAVEL CENTERS #24",
    "city": "Monroe",
    "state": "MI",
    "price_per_gallon": 3.249,
    "latitude": 41.91643,
    "longitude": -83.39771
  },
  {
    "opis_id": 278,
    "name": "CARLISLE PLAZA",
    "city": "Carlisle",
    "state": "IN",
    "price_per_gallon": 3.499,
    "latitude": 38.96838,
    "longitude": -87.40557
  },
  {
    "opis_id": 281,
    "name": "CIRCLE K #4700065",
    "city": "Taylorsville",
    "state": "IN",
    "price_per_gallon": 3.399,
    "latitude": 39.29588,
    "longitude": -85.95083
  },
  {
    "opis_id": 289,
    "name": "LOVES TRAVEL STOP #173",
    "city": "Lawrence",
    "state": "KS",
    "price_per_gallon": 3.229,
    "latitude": 38.97167,
    "longitude": -95.23525
  },
  {
    "opis_id": 292,
    "name": "PETES #56",
    "city": "Cherryvale",
    "state": "KS",
    "price_per_gallon": 3.23233333,
    "latitude": 37.27034,
    "longitude": -95.55248
  },
  {
    "opis_id": 293,
    "name": "LOVES TRAVEL STOP #176",
    "city": "Matfield Green",
    "state": "KS",
    "price_per_gallon": 3.25566666,
    "latitude": 38.15918,
    "longitude": -96.56057
  },
  {
    "opis_id": 304,
    "name": "FL Roberts",
    "city": "Springfield",
    "state": "MA",
    "price_per_gallon": 3.599,
    "latitude": 42.10148,
    "longitude": -72.58981
  },
  {
    "opis_id": 309,
    "name": "QUIKTRIP #231",
    "city": "Kansas City",
    "state": "KS",
    "price_per_gallon": 3.199,
    "latitude": 39.11417,
    "longitude": -94.62746
  },
  {
    "opis_id": 323,
    "name": "SAPP BROS TRAVEL CENTER",
    "city": "Ogallala",
    "state": "NE",
    "price_per_gallon": 3.46566666,
    "latitude": 41.12805,
    "longitude": -101.71962
  },
  {
    "opis_id": 326,
    "name": "FLYING J TRAVEL PLAZA #748",
    "city": "Willard",
    "state": "UT",
    "price_per_gallon": 3.749,
    "latitude": 41.40911,
    "longitude": -112.03606
  },
  {
    "opis_id": 347,
    "name": "7-ELEVEN #40514",
    "city": "Portage",
    "state": "IN",
    "price_per_gallon": 3.99066666,
    "latitude": 41.57587,
    "longitude": -87.17615
  },
  {
    "opis_id": 358,
    "name": "TA BINGHAMTON TRAVELCENTER",
    "city": "Binghamton",
    "state": "NY",
    "price_per_gallon": 3.689,
    "latitude": 42.09869,
    "longitude": -75.91797
  },
  {
    "opis_id": 361,
    "name": "CIRCLE K #2726293",
    "city": "Jacksonville",
    "state": "FL",
    "price_per_gallon": 3.31566666,
    "latitude": 30.33218,
    "longitude": -81.65565
  },
  {
    "opis_id": 368,
    "name": "WILTON TRAVEL PLAZA",
    "city": "Gansevoort",
    "state": "NY",
    "price_per_gallon": 3.749,
    "latitude": 43.19618,
    "longitude": -73.65178
  },
  {
    "opis_id": 372,
    "name": "GAS DEPOT",
    "city": "Hammond",
    "state": "IN",
    "price_per_gallon": 3.999,
    "latitude": 41.58337,
    "longitude": -87.50004
  },
  {
    "opis_id": 381,
    "name": "7-Eleven #41830",
    "city": "Jacksonville",
    "state": "TX",
    "price_per_gallon": 2.91566666,
    "latitude": 31.96378,
    "longitude": -95.2705
  },
  {
    "opis_id": 387,
    "name": "Circle K #2709664",
    "city": "Yuma",
    "state": "AZ",
    "price_per_gallon": 3.489,
    "latitude": 32.72532,
    "longitude": -114.6244
  },
  {
    "opis_id": 388,
    "name": "Pilot Travel Centers #14",
    "city": "Sunbury",
    "state": "OH",
    "price_per_gallon": 3.719,
    "latitude": 40.24256,
    "longitude": -82.85907
  },
  {
    "opis_id": 391,
    "name": "PILOT TRAVEL CENTERS #13",
    "city": "Seville",
    "state": "OH",
    "price_per_gallon": 3.699,
    "latitude": 41.01006,
    "longitude": -81.86236
  },
  {
    "opis_id": 403,
    "name": "TRUCKOMAT OF HEBRON",
    "city": "Hebron",
    "state": "OH",
    "price_per_gallon": 3.429,
    "latitude": 39.96173,
    "longitude": -82.49127
  },
  {
    "opis_id": 407,
    "name": "FUEL MART #641",
    "city": "Perrysburg",
    "state": "OH",
    "price_per_gallon": 3.499,
    "latitude": 41.557,
    "longitude": -83.62716
  },
  {
    "opis_id": 421,
    "name": "PETRO STOPPING CENTER #316",
    "city": "Oklahoma City",
    "state": "OK",
    "price_per_gallon": 3.30233333,
    "latitude": 35.46756,
    "longitude": -97.51643
  },
  {
    "opis_id": 424,
    "name": "E EXPRESS",
    "city": "Choctaw",
    "state": "OK",
    "price_per_gallon": 2.899,
    "latitude": 35.49756,
    "longitude": -97.26892
  },
  {
    "opis_id": 425,
    "name": "Neighbors Express",
    "city": "Dublin",
    "state": "GA",
    "price_per_gallon": 3.299,
    "latitude": 32.54044,
    "longitude": -82.90375
  },
  {
    "opis_id": 442,
    "name": "WESTERN COOP",
    "city": "Alliance",
    "state": "NE",
    "price_per_gallon": 3.324,
    "latitude": 42.10163,
    "longitude": -102.87215
  },
  {
    "opis_id": 455,
    "name": "MR FUEL #753",
    "city": "Ruther Glen",
    "state": "VA",
    "price_per_gallon": 3.26566666,
    "latitude": 37.92875,
    "longitude": -77.45582
  },
  {
    "opis_id": 456,
    "name": "THE COUNTRY OASIS",
    "city": "Woodburn",
    "state": "IN",
    "price_per_gallon": 3.399,
    "latitude": 41.12533,
    "longitude": -84.8533
  },
  {
    "opis_id": 458,
    "name": "HAPPY HILLS GAS & COFFEE",
    "city": "Rock Port",
    "state": "MO",
    "price_per_gallon": 3.399,
    "latitude": 40.41111,
    "longitude": -95.51693
  },
  {
    "opis_id": 460,
    "name": "TRUCK STOP 44",
    "city": "Gilbert",
    "state": "SC",
    "price_per_gallon": 3.079,
    "latitude": 33.92431,
    "longitude": -81.39371
  },
  {
    "opis_id": 461,
    "name": "SPINX #271",
    "city": "Orangeburg",
    "state": "SC",
    "price_per_gallon": 3.26233333,
    "latitude": 33.49182,
    "longitude": -80.85565
  },
  {
    "opis_id": 469,
    "name": "LOAF N JUG #750010",
    "city": "Alamosa",
    "state": "CO",
    "price_per_gallon": 3.259,
    "latitude": 37.46945,
    "longitude": -105.87002
  },
  {
    "opis_id": 474,
    "name": "KEWANEE 1 STOP",
    "city": "Toomsuba",
    "state": "MS",
    "price_per_gallon": 3.299,
    "latitude": 32.41847,
    "longitude": -88.50698
  },
  {
    "opis_id": 478,
    "name": "GASTRAK OF PEMBINA",
    "city": "Pembina",
    "state": "ND",
    "price_per_gallon": 3.299,
    "latitude": 48.96638,
    "longitude": -97.24368
  },
  {
    "opis_id": 483,
    "name": "ALLSUPS #2387",
    "city": "Guymon",
    "state": "OK",
    "price_per_gallon": 2.97566666,
    "latitude": 36.6828,
    "longitude": -101.48155
  },
  {
    "opis_id": 486,
    "name": "LA NORIA CONV STORES",
    "city": "Laredo",
    "state": "TX",
    "price_per_gallon": 3.299,
    "latitude": 27.50641,
    "longitude": -99.50754
  },
  {
    "opis_id": 489,
    "name": "EDDIES CORNER",
    "city": "Moore",
    "state": "MT",
    "price_per_gallon": 3.749,
    "latitude": 46.97552,
    "longitude": -109.69685
  },
  {
    "opis_id": 491,
    "name": "One9 #403",
    "city": "Heiskell",
    "state": "TN",
    "price_per_gallon": 2.999,
    "latitude": 36.08175,
    "longitude": -84.0538
  },
  {
    "opis_id": 496,
    "name": "PILOT TRAVEL CENTERS #270",
    "city": "Knoxville",
    "state": "TN",
    "price_per_gallon": 3.439,
    "latitude": 35.96064,
    "longitude": -83.92074
  },
  {
    "opis_id": 509,
    "name": "LOVES TRAVEL STOPS #256",
    "city": "Van Horn",
    "state": "TX",
    "price_per_gallon": 3.649,
    "latitude": 31.04029,
    "longitude": -104.83073
  },
  {
    "opis_id": 522,
    "name": "GO MART FOOD STORE #57",
    "city": "Lore City",
    "state": "OH",
    "price_per_gallon": 3.179,
    "latitude": 39.98479,
    "longitude": -81.45845
  },
  {
    "opis_id": 523,
    "name": "CIRCLE K #2723322",
    "city": "Gainesville",
    "state": "GA",
    "price_per_gallon": 3.26566666,
    "latitude": 34.29788,
    "longitude": -83.82407
  },
  {
    "opis_id": 525,
    "name": "FASTBREAK",
    "city": "West Point",
    "state": "MS",
    "price_per_gallon": 3.059,
    "latitude": 33.60762,
    "longitude": -88.65033
  },
  {
    "opis_id": 546,
    "name": "PLAZA 30",
    "city": "Wanatah",
    "state": "IN",
    "price_per_gallon": 3.499,
    "latitude": 41.4306,
    "longitude": -86.89836
  },
  {
    "opis_id": 557,
    "name": "SAPP BROS TRAVEL CENTER",
    "city": "Peru",
    "state": "IL",
    "price_per_gallon": 3.289,
    "latitude": 41.32753,
    "longitude": -89.12897
  },
  {
    "opis_id": 559,
    "name": "SHELL MORGAN ROAD TRUCK STOP",
    "city": "Maumelle",
    "state": "AR",
    "price_per_gallon": 3.20733333,
    "latitude": 34.86676,
    "longitude": -92.40432
  },
  {
    "opis_id": 566,
    "name": "TA GARY TRAVEL CENTER",
    "city": "Gary",
    "state": "IN",
    "price_per_gallon": 3.83066666,
    "latitude": 41.59337,
    "longitude": -87.34643
  },
  {
    "opis_id": 567,
    "name": "TA ELOY TRAVEL CENTER",
    "city": "Eloy",
    "state": "AZ",
    "price_per_gallon": 3.459,
    "latitude": 32.7559,
    "longitude": -111.55484
  },
  {
    "opis_id": 572,
    "name": "PILOT TRAVEL CENTER #881",
    "city": "Fort Wayne",
    "state": "IN",
    "price_per_gallon": 3.879,
    "latitude": 41.1306,
    "longitude": -85.12886
  },
  {
    "opis_id": 576,
    "name": "PETRO STOPPING CENTER #343",
    "city": "Egan",
    "state": "LA",
    "price_per_gallon": 3.624,
    "latitude": 30.23687,
    "longitude": -92.50597
  },
  {
    "opis_id": 578,
    "name": "LOVES TRAVEL STOP #449",
    "city": "Troutdale",
    "state": "OR",
    "price_per_gallon": 3.779,
    "latitude": 45.53929,
    "longitude": -122.38731
  },
  {
    "opis_id": 579,
    "name": "FLYING J TRAVEL PLAZA #764",
    "city": "Rock Springs",
    "state": "WY",
    "price_per_gallon": 3.67066666,
    "latitude": 41.58746,
    "longitude": -109.2029
  },
  {
    "opis_id": 586,
    "name": "AMERISTAR TRAVEL PLAZA #120",
    "city": "Prosser",
    "state": "WA",
    "price_per_gallon": 4.399,
    "latitude": 46.2068,
    "longitude": -119.76892
  },
  {
    "opis_id": 588,
    "name": "TA TUSCALOOSA TRAVEL CENTER",
    "city": "Cottondale",
    "state": "AL",
    "price_per_gallon": 2.964,
    "latitude": 31.20518,
    "longitude": -85.38188
  },
  {
    "opis_id": 591,
    "name": "TA Concordia Travel Plaza",
    "city": "Concordia",
    "state": "MO",
    "price_per_gallon": 3.22566666,
    "latitude": 38.98335,
    "longitude": -93.56855
  },
  {
    "opis_id": 599,
    "name": "Sapp Bros Travel Center",
    "city": "Sidney",
    "state": "NE",
    "price_per_gallon": 3.50066666,
    "latitude": 41.14276,
    "longitude": -102.97798
  },
  {
    "opis_id": 602,
    "name": "JIFFY MART EXIT 18 TRUCK STOP",
    "city": "Lebanon",
    "state": "NH",
    "price_per_gallon": 3.599,
    "latitude": 43.64229,
    "longitude": -72.25176
  },
  {
    "opis_id": 614,
    "name": "TA MAYBROOK TRAVEL CENTER",
    "city": "Montgomery",
    "state": "NY",
    "price_per_gallon": 4.359,
    "latitude": 41.52759,
    "longitude": -74.23682
  },
  {
    "opis_id": 628,
    "name": "KWIK FILL #227",
    "city": "Geneva",
    "state": "OH",
    "price_per_gallon": 3.15233333,
    "latitude": 39.66201,
    "longitude": -82.43349
  },
  {
    "opis_id": 636,
    "name": "UNION 76",
    "city": "Albany",
    "state": "OR",
    "price_per_gallon": 3.379,
    "latitude": 44.63651,
    "longitude": -123.10593
  },
  {
    "opis_id": 651,
    "name": "ONE9 #1366",
    "city": "Holladay",
    "state": "TN",
    "price_per_gallon": 2.98566666,
    "latitude": 35.87062,
    "longitude": -88.14587
  },
  {
    "opis_id": 652,
    "name": "TA KNOXVILLE EAST TRAVEL CENTER",
    "city": "Knoxville",
    "state": "TN",
    "price_per_gallon": 3.42566666,
    "latitude": 35.96064,
    "longitude": -83.92074
  },
  {
    "opis_id": 669,
    "name": "PETRO STOPPING CENTER #350",
    "city": "Canutillo",
    "state": "TX",
    "price_per_gallon": 3.499,
    "latitude": 31.91149,
    "longitude": -106.60027
  },
  {
    "opis_id": 680,
    "name": "TA EXPRESS SUMMIT",
    "city": "Summit",
    "state": "SD",
    "price_per_gallon": 3.20566666,
    "latitude": 45.30441,
    "longitude": -97.03647
  },
  {
    "opis_id": 684,
    "name": "7-ELEVEN #35101",
    "city": "Randolph",
    "state": "NY",
    "price_per_gallon": 4.499,
    "latitude": 42.16201,
    "longitude": -78.97532
  },
  {
    "opis_id": 689,
    "name": "FLYING EAGLE",
    "city": "Wichita",
    "state": "KS",
    "price_per_gallon": 3.499,
    "latitude": 37.69224,
    "longitude": -97.33754
  },
  {
    "opis_id": 692,
    "name": "BP",
    "city": "Ottumwa",
    "state": "IA",
    "price_per_gallon": 3.399,
    "latitude": 41.02001,
    "longitude": -92.4113
  },
  {
    "opis_id": 739,
    "name": "Arco #364420",
    "city": "Greenup",
    "state": "KY",
    "price_per_gallon": 3.649,
    "latitude": 38.57313,
    "longitude": -82.83017
  },
  {
    "opis_id": 748,
    "name": "QUIKTRIP #4231",
    "city": "Evans",
    "state": "CO",
    "price_per_gallon": 3.17233333,
    "latitude": 40.37637,
    "longitude": -104.69219
  },
  {
    "opis_id": 769,
    "name": "AYERCO #26",
    "city": "Alexandria",
    "state": "MO",
    "price_per_gallon": 3.01566666,
    "latitude": 40.35949,
    "longitude": -91.45543
  },
  {
    "opis_id": 815,
    "name": "Kwik Trip #1508",
    "city": "Barneveld",
    "state": "WI",
    "price_per_gallon": 3.489,
    "latitude": 43.01555,
    "longitude": -89.8954
  },
  {
    "opis_id": 855,
    "name": "SPEEDWAY #7459",
    "city": "North Chicago",
    "state": "IL",
    "price_per_gallon": 3.289,
    "latitude": 42.32558,
    "longitude": -87.84118
  },
  {
    "opis_id": 863,
    "name": "Ocean Fuel",
    "city": "Sylvania",
    "state": "GA",
    "price_per_gallon": 3.499,
    "latitude": 32.75044,
    "longitude": -81.63678
  },
  {
    "opis_id": 906,
    "name": "PILOT TRAVEL CENTERS #429",
    "city": "West Memphis",
    "state": "AR",
    "price_per_gallon": 3.291,
    "latitude": 35.14648,
    "longitude": -90.18454
  },
  {
    "opis_id": 908,
    "name": "CIRCLE K #2704888",
    "city": "Pelham",
    "state": "AL",
    "price_per_gallon": 3.46566666,
    "latitude": 33.28567,
    "longitude": -86.80999
  },
  {
    "opis_id": 936,
    "name": "CASEYS #4254",
    "city": "Conway",
    "state": "AR",
    "price_per_gallon": 3.03233333,
    "latitude": 35.0887,
    "longitude": -92.4421
  },
  {
    "opis_id": 970,
    "name": "CIRCLE K #2702885",
    "city": "Phoenix",
    "state": "AZ",
    "price_per_gallon": 3.39233333,
    "latitude": 33.44838,
    "longitude": -112.07404
  },
  {
    "opis_id": 977,
    "name": "PILOT TRAVEL CENTER #328",
    "city": "Quartzsite",
    "state": "AZ",
    "price_per_gallon": 3.959,
    "latitude": 33.66391,
    "longitude": -114.22995
  },
  {
    "opis_id": 981,
    "name": "STINKER #85",
    "city": "Blackfoot",
    "state": "ID",
    "price_per_gallon": 3.53233333,
    "latitude": 43.19047,
    "longitude": -112.34498
  },
  {
    "opis_id": 982,
    "name": "CIRCLE K #2701948",
    "city": "Yuma",
    "state": "AZ",
    "price_per_gallon": 3.56566666,
    "latitude": 32.72532,
    "longitude": -114.6244
  },
  {
    "opis_id": 1028,
    "name": "FOUR STATES TRUCK STOP",
    "city": "New Castle",
    "state": "DE",
    "price_per_gallon": 3.399,
    "latitude": 39.65948,
    "longitude": -75.56359
  },
  {
    "opis_id": 1042,
    "name": "Union 76",
    "city": "Lake City",
    "state": "FL",
    "price_per_gallon": 3.56233333,
    "latitude": 30.18968,
    "longitude": -82.63929
  },
  {
    "opis_id": 1043,
    "name": "ONE9 #1401",
    "city": "Lake City",
    "state": "FL",
    "price_per_gallon": 3.244,
    "latitude": 30.18968,
    "longitude": -82.63929
  },
  {
    "opis_id": 1047,
    "name": "TA MARIANNA TRAVEL CENTER",
    "city": "Marianna",
    "state": "FL",
    "price_per_gallon": 3.60733333,
    "latitude": 30.77436,
    "longitude": -85.22687
  },
  {
    "opis_id": 1075,
    "name": "PILOT TRAVEL CENTER #68",
    "city": "Dublin",
    "state": "GA",
    "price_per_gallon": 3.399,
    "latitude": 32.54044,
    "longitude": -82.90375
  },
  {
    "opis_id": 1106,
    "name": "CIRCLE K #2705367",
    "city": "Thomson",
    "state": "GA",
    "price_per_gallon": 3.399,
    "latitude": 33.47069,
    "longitude": -82.50457
  },
  {
    "opis_id": 1112,
    "name": "BC AMPRIDE TRUCK PLAZA",
    "city": "Denison",
    "state": "IA",
    "price_per_gallon": 3.399,
    "latitude": 42.01777,
    "longitude": -95.35528
  },
  {
    "opis_id": 1115,
    "name": "KWIK STAR #704",
    "city": "Parkersburg",
    "state": "IA",
    "price_per_gallon": 3.58233333,
    "latitude": 42.57748,
    "longitude": -92.78686
  },
  {
    "opis_id": 1121,
    "name": "TRAVELERS OASIS",
    "city": "Eden",
    "state": "ID",
    "price_per_gallon": 3.799,
    "latitude": 42.60575,
    "longitude": -114.21086
  },
  {
    "opis_id": 1128,
    "name": "TA CHICAGO NORTH TRAVEL CENTER",
    "city": "Wadsworth",
    "state": "IL",
    "price_per_gallon": 3.769,
    "latitude": 42.42863,
    "longitude": -87.92397
  },
  {
    "opis_id": 1132,
    "name": "SPEEDWAY #7423",
    "city": "Ina",
    "state": "IL",
    "price_per_gallon": 3.249,
    "latitude": 38.15116,
    "longitude": -88.90396
  },
  {
    "opis_id": 1136,
    "name": "PILOT TRAVEL CENTER #171",
    "city": "Oakwood",
    "state": "IL",
    "price_per_gallon": 3.399,
    "latitude": 40.11615,
    "longitude": -87.77836
  },
  {
    "opis_id": 1140,
    "name": "CIRCLE K #4701398",
    "city": "Divernon",
    "state": "IL",
    "price_per_gallon": 3.499,
    "latitude": 39.56561,
    "longitude": -89.65732
  },
  {
    "opis_id": 1149,
    "name": "PILOT TRAVEL CENTER #30",
    "city": "Greenfield",
    "state": "IN",
    "price_per_gallon": 3.959,
    "latitude": 39.78504,
    "longitude": -85.76942
  },
  {
    "opis_id": 1151,
    "name": "SPEEDWAY #8061",
    "city": "Knightstown",
    "state": "IN",
    "price_per_gallon": 3.759,
    "latitude": 39.7956,
    "longitude": -85.52636
  },
  {
    "opis_id": 1154,
    "name": "CIRCLE K #2704691",
    "city": "Cedar Creek",
    "state": "TX",
    "price_per_gallon": 3.199,
    "latitude": 30.08716,
    "longitude": -97.50083
  },
  {
    "opis_id": 1156,
    "name": "CIRCLE K #4700028",
    "city": "Shelbyville",
    "state": "IN",
    "price_per_gallon": 3.599,
    "latitude": 39.52144,
    "longitude": -85.77692
  },
  {
    "opis_id": 1157,
    "name": "One9 #297",
    "city": "Terre Haute",
    "state": "IN",
    "price_per_gallon": 3.43566666,
    "latitude": 39.4667,
    "longitude": -87.41391
  },
  {
    "opis_id": 1158,
    "name": "PILOT TRAVEL CENTERS #36",
    "city": "Valparaiso",
    "state": "IN",
    "price_per_gallon": 3.859,
    "latitude": 41.47309,
    "longitude": -87.06114
  },
  {
    "opis_id": 1163,
    "name": "SHORT STOP #13",
    "city": "Emporia",
    "state": "KS",
    "price_per_gallon": 2.839,
    "latitude": 38.4039,
    "longitude": -96.18166
  },
  {
    "opis_id": 1176,
    "name": "PILOT TRAVEL CENTERS #353",
    "city": "Georgetown",
    "state": "KY",
    "price_per_gallon": 3.20566666,
    "latitude": 38.2098,
    "longitude": -84.55883
  },
  {
    "opis_id": 1179,
    "name": "PILOT TRAVEL CENTERS #399",
    "city": "Lebanon Junction",
    "state": "KY",
    "price_per_gallon": 3.609,
    "latitude": 37.83451,
    "longitude": -85.7319
  },
  {
    "opis_id": 1196,
    "name": "SOUTHERN BELLE TRUCK STOP",
    "city": "Saint Francisville",
    "state": "LA",
    "price_per_gallon": 3.384,
    "latitude": 30.7799,
    "longitude": -91.3765
  },
  {
    "opis_id": 1199,
    "name": "ALLTOWN MARKETS #306",
    "city": "Leominster",
    "state": "MA",
    "price_per_gallon": 3.68233333,
    "latitude": 42.52509,
    "longitude": -71.75979
  },
  {
    "opis_id": 1202,
    "name": "ONE9 #290",
    "city": "Perryville",
    "state": "MD",
    "price_per_gallon": 3.599,
    "latitude": 39.56011,
    "longitude": -76.07134
  },
  {
    "opis_id": 1204,
    "name": "PETRO STOPPING CENTER #321",
    "city": "Effingham",
    "state": "IL",
    "price_per_gallon": 3.349,
    "latitude": 39.12004,
    "longitude": -88.54338
  },
  {
    "opis_id": 1208,
    "name": "D AVENUE FUEL PLAZA",
    "city": "Kalamazoo",
    "state": "MI",
    "price_per_gallon": 3.099,
    "latitude": 42.29171,
    "longitude": -85.58723
  },
  {
    "opis_id": 1210,
    "name": "ROADHAWK TRAVEL CENTER",
    "city": "Paw Paw",
    "state": "MI",
    "price_per_gallon": 3.559,
    "latitude": 42.21782,
    "longitude": -85.89112
  },
  {
    "opis_id": 1217,
    "name": "KWIK TRIP #250",
    "city": "Austin",
    "state": "MN",
    "price_per_gallon": 3.374,
    "latitude": 43.66663,
    "longitude": -92.97464
  },
  {
    "opis_id": 1218,
    "name": "CASEYS #3658",
    "city": "Pillager",
    "state": "MN",
    "price_per_gallon": 3.299,
    "latitude": 46.32997,
    "longitude": -94.47417
  },
  {
    "opis_id": 1225,
    "name": "AYERCO #35",
    "city": "Bowling Green",
    "state": "MO",
    "price_per_gallon": 3.01566666,
    "latitude": 39.34199,
    "longitude": -91.19514
  },
  {
    "opis_id": 1234,
    "name": "Lamar Travel Plaza",
    "city": "Lamar",
    "state": "MO",
    "price_per_gallon": 3.199,
    "latitude": 37.49505,
    "longitude": -94.27661
  },
  {
    "opis_id": 1236,
    "name": "AYERCO #44",
    "city": "Palmyra",
    "state": "MO",
    "price_per_gallon": 3.01566666,
    "latitude": 39.79421,
    "longitude": -91.52321
  },
  {
    "opis_id": 1240,
    "name": "TEMP STOP #103",
    "city": "Sedalia",
    "state": "MO",
    "price_per_gallon": 3.199,
    "latitude": 38.70446,
    "longitude": -93.22826
  },
  {
    "opis_id": 1247,
    "name": "SNAPPY MART #11",
    "city": "West Plains",
    "state": "MO",
    "price_per_gallon": 3.299,
    "latitude": 36.72812,
    "longitude": -91.85237
  },
  {
    "opis_id": 1251,
    "name": "MAPCO #3009",
    "city": "Corinth",
    "state": "MS",
    "price_per_gallon": 3.154,
    "latitude": 34.93425,
    "longitude": -88.52227
  },
  {
    "opis_id": 1256,
    "name": "DOUBLE QUICK #89",
    "city": "Greenville",
    "state": "MS",
    "price_per_gallon": 3.25566666,
    "latitude": 33.40898,
    "longitude": -91.05978
  },
  {
    "opis_id": 1265,
    "name": "JOE JOES TRAVEL CENTER",
    "city": "Red Banks",
    "state": "MS",
    "price_per_gallon": 2.97233333,
    "latitude": 34.82815,
    "longitude": -89.56453
  },
  {
    "opis_id": 1304,
    "name": "LOVES TRAVEL STOP #667",
    "city": "Mebane",
    "state": "NC",
    "price_per_gallon": 3.94733333,
    "latitude": 36.09597,
    "longitude": -79.26696
  },
  {
    "opis_id": 1315,
    "name": "CIRCLE K #2720218",
    "city": "Sanford",
    "state": "NC",
    "price_per_gallon": 3.08233333,
    "latitude": 35.47988,
    "longitude": -79.1803
  },
  {
    "opis_id": 1325,
    "name": "SCOTCHMAN #3303",
    "city": "Wilmington",
    "state": "NC",
    "price_per_gallon": 3.629,
    "latitude": 34.23556,
    "longitude": -77.94604
  },
  {
    "opis_id": 1326,
    "name": "SPEEDWAY #7949",
    "city": "Wilson",
    "state": "NC",
    "price_per_gallon": 3.199,
    "latitude": 35.72127,
    "longitude": -77.91554
  },
  {
    "opis_id": 1333,
    "name": "PUMP & PANTRY #15",
    "city": "Grand Island",
    "state": "NE",
    "price_per_gallon": 3.30733333,
    "latitude": 40.92501,
    "longitude": -98.34201
  },
  {
    "opis_id": 1340,
    "name": "BORDENTOWN VALERO",
    "city": "Bordentown",
    "state": "NJ",
    "price_per_gallon": 3.499,
    "latitude": 40.14622,
    "longitude": -74.71183
  },
  {
    "opis_id": 1342,
    "name": "Delta",
    "city": "Fairfield",
    "state": "NJ",
    "price_per_gallon": 3.20233333,
    "latitude": 40.88371,
    "longitude": -74.30598
  },
  {
    "opis_id": 1344,
    "name": "BOLLA TRUCK STOP #193",
    "city": "Mahwah",
    "state": "NJ",
    "price_per_gallon": 3.53233333,
    "latitude": 41.08871,
    "longitude": -74.14376
  },
  {
    "opis_id": 1348,
    "name": "GLOBAL",
    "city": "Palmyra",
    "state": "NJ",
    "price_per_gallon": 3.359,
    "latitude": 40.00706,
    "longitude": -75.02823
  },
  {
    "opis_id": 1356,
    "name": "LOVES TRAVEL STOP #257",
    "city": "Milan",
    "state": "NM",
    "price_per_gallon": 3.59066666,
    "latitude": 35.16976,
    "longitude": -107.89089
  },
  {
    "opis_id": 1364,
    "name": "7- ELEVEN #40507",
    "city": "Rolling Prairie",
    "state": "IN",
    "price_per_gallon": 3.98233333,
    "latitude": 41.67088,
    "longitude": -86.61585
  },
  {
    "opis_id": 1372,
    "name": "PILOT TRAVEL CENTER #469",
    "city": "Canton",
    "state": "OH",
    "price_per_gallon": 3.62233333,
    "latitude": 40.79895,
    "longitude": -81.37845
  },
  {
    "opis_id": 1376,
    "name": "FUEL MART #782",
    "city": "Lima",
    "state": "OH",
    "price_per_gallon": 3.08566666,
    "latitude": 40.74255,
    "longitude": -84.10523
  },
  {
    "opis_id": 1379,
    "name": "TA LODI TRAVEL CENTER",
    "city": "Seville",
    "state": "OH",
    "price_per_gallon": 3.739,
    "latitude": 41.01006,
    "longitude": -81.86236
  },
  {
    "opis_id": 1384,
    "name": "SUNOCO",
    "city": "Montpelier",
    "state": "OH",
    "price_per_gallon": 3.41566666,
    "latitude": 41.5845,
    "longitude": -84.60551
  },
  {
    "opis_id": 1391,
    "name": "ONCUE EXPRESS #2045",
    "city": "Billings",
    "state": "OK",
    "price_per_gallon": 3.21566666,
    "latitude": 36.52892,
    "longitude": -97.44394
  },
  {
    "opis_id": 1395,
    "name": "DOMINO FOOD AND FUEL #1",
    "city": "Clinton",
    "state": "OK",
    "price_per_gallon": 3.099,
    "latitude": 35.51561,
    "longitude": -98.96731
  },
  {
    "opis_id": 1404,
    "name": "ONE9 #339",
    "city": "Covington",
    "state": "IN",
    "price_per_gallon": 3.26233333,
    "latitude": 40.1417,
    "longitude": -87.39474
  },
  {
    "opis_id": 1414,
    "name": "SAC SHOP #507",
    "city": "Breezewood",
    "state": "PA",
    "price_per_gallon": 4.099,
    "latitude": 39.99925,
    "longitude": -78.23862
  },
  {
    "opis_id": 1424,
    "name": "GETTYSBURG TRAVEL PLAZA",
    "city": "Gettysburg",
    "state": "PA",
    "price_per_gallon": 3.899,
    "latitude": 39.83093,
    "longitude": -77.2311
  },
  {
    "opis_id": 1428,
    "name": "CIRCLE K #4702408",
    "city": "Lafayette",
    "state": "IN",
    "price_per_gallon": 3.43233333,
    "latitude": 40.4167,
    "longitude": -86.87529
  },
  {
    "opis_id": 1432,
    "name": "KWIK FILL #259",
    "city": "Mechanicsburg",
    "state": "PA",
    "price_per_gallon": 4.049,
    "latitude": 40.21426,
    "longitude": -77.00859
  },
  {
    "opis_id": 1444,
    "name": "PILOT TRAVEL CENTERS #346",
    "city": "Lugoff",
    "state": "SC",
    "price_per_gallon": 3.43233333,
    "latitude": 34.22737,
    "longitude": -80.68925
  },
  {
    "opis_id": 1445,
    "name": "PILOT TRAVEL CENTERS #402",
    "city": "Cheyenne",
    "state": "WY",
    "price_per_gallon": 3.709,
    "latitude": 41.13998,
    "longitude": -104.82025
  },
  {
    "opis_id": 1447,
    "name": "HOT SPOT #3005",
    "city": "Chesnee",
    "state": "SC",
    "price_per_gallon": 3.199,
    "latitude": 35.14845,
    "longitude": -81.86094
  },
  {
    "opis_id": 1453,
    "name": "EXPRESS STOP",
    "city": "Rockmart",
    "state": "GA",
    "price_per_gallon": 3.319,
    "latitude": 34.0026,
    "longitude": -85.04161
  },
  {
    "opis_id": 1455,
    "name": "PETRO FLORENCE",
    "city": "Florence",
    "state": "SC",
    "price_per_gallon": 3.32566666,
    "latitude": 34.19543,
    "longitude": -79.76256
  },
  {
    "opis_id": 1461,
    "name": "CIRCLE K #2705370",
    "city": "Inman",
    "state": "SC",
    "price_per_gallon": 3.099,
    "latitude": 35.04706,
    "longitude": -82.09011
  },
  {
    "opis_id": 1464,
    "name": "CIRCLE K #2723254",
    "city": "Lexington",
    "state": "SC",
    "price_per_gallon": 3.199,
    "latitude": 33.98154,
    "longitude": -81.23621
  },
  {
    "opis_id": 1470,
    "name": "CIRCLE K #2705348",
    "city": "Beech Island",
    "state": "SC",
    "price_per_gallon": 3.159,
    "latitude": 33.42736,
    "longitude": -81.89095
  },
  {
    "opis_id": 1479,
    "name": "TA SPARTANBURG TRAVEL CENTER",
    "city": "Duncan",
    "state": "SC",
    "price_per_gallon": 3.43233333,
    "latitude": 34.9379,
    "longitude": -82.14511
  },
  {
    "opis_id": 1487,
    "name": "ROADRUNNER MARKET #6019",
    "city": "Greeneville",
    "state": "TN",
    "price_per_gallon": 3.499,
    "latitude": 36.16316,
    "longitude": -82.83099
  },
  {
    "opis_id": 1492,
    "name": "MAPCO #3538",
    "city": "Chattanooga",
    "state": "TN",
    "price_per_gallon": 2.899,
    "latitude": 35.04563,
    "longitude": -85.30968
  },
  {
    "opis_id": 1507,
    "name": "CIRCLE K #4703941",
    "city": "Memphis",
    "state": "TN",
    "price_per_gallon": 3.189,
    "latitude": 35.14953,
    "longitude": -90.04898
  },
  {
    "opis_id": 1516,
    "name": "LOVES TRAVEL STOP #261",
    "city": "Amarillo",
    "state": "TX",
    "price_per_gallon": 3.23233333,
    "latitude": 35.222,
    "longitude": -101.8313
  },
  {
    "opis_id": 1531,
    "name": "CircleK #4702365",
    "city": "Shelbyville",
    "state": "IN",
    "price_per_gallon": 3.509,
    "latitude": 39.52144,
    "longitude": -85.77692
  },
  {
    "opis_id": 1533,
    "name": "YESWAY #1157",
    "city": "Brownfield",
    "state": "TX",
    "price_per_gallon": 2.99233333,
    "latitude": 33.1812,
    "longitude": -102.27435
  },
  {
    "opis_id": 1546,
    "name": "SHELL",
    "city": "Dilley",
    "state": "TX",
    "price_per_gallon": 3.099,
    "latitude": 28.66748,
    "longitude": -99.17059
  },
  {
    "opis_id": 1548,
    "name": "TOOT N TOTUM #107",
    "city": "Dumas",
    "state": "TX",
    "price_per_gallon": 3.03233333,
    "latitude": 35.86559,
    "longitude": -101.97324
  },
  {
    "opis_id": 1552,
    "name": "STRIPES #40911",
    "city": "Freer",
    "state": "TX",
    "price_per_gallon": 3.099,
    "latitude": 27.8828,
    "longitude": -98.61779
  },
  {
    "opis_id": 1555,
    "name": "SEIBERT TRAVEL PLAZA",
    "city": "Seibert",
    "state": "CO",
    "price_per_gallon": 3.499,
    "latitude": 39.29916,
    "longitude": -102.8691
  },
  {
    "opis_id": 1560,
    "name": "CATTREZ",
    "city": "Irving",
    "state": "NY",
    "price_per_gallon": 2.899,
    "latitude": 42.56756,
    "longitude": -79.11282
  },
  {
    "opis_id": 1562,
    "name": "I MART #108",
    "city": "Wildersville",
    "state": "TN",
    "price_per_gallon": 3.099,
    "latitude": 35.78145,
    "longitude": -88.36032
  },
  {
    "opis_id": 1567,
    "name": "KUM & GO #4110",
    "city": "Des Moines",
    "state": "IA",
    "price_per_gallon": 3.02733333,
    "latitude": 41.60054,
    "longitude": -93.60911
  },
  {
    "opis_id": 1579,
    "name": "FLYING J TRAVEL PLAZA #924- TOWN PUMP",
    "city": "Butte",
    "state": "MT",
    "price_per_gallon": 3.56566666,
    "latitude": 46.00382,
    "longitude": -112.53474
  },
  {
    "opis_id": 1582,
    "name": "LOVES TRAVEL STOP #250",
    "city": "Amarillo",
    "state": "TX",
    "price_per_gallon": 3.314,
    "latitude": 35.222,
    "longitude": -101.8313
  },
  {
    "opis_id": 1585,
    "name": "Stripes 7Fleet #42498",
    "city": "Andrews",
    "state": "TX",
    "price_per_gallon": 3.369,
    "latitude": 32.31872,
    "longitude": -102.54572
  },
  {
    "opis_id": 1590,
    "name": "ROAD RANGER #240",
    "city": "Lake Station",
    "state": "IN",
    "price_per_gallon": 3.559,
    "latitude": 41.57504,
    "longitude": -87.23892
  },
  {
    "opis_id": 1596,
    "name": "FLYING J #305",
    "city": "Jamestown",
    "state": "NM",
    "price_per_gallon": 3.44233333,
    "latitude": 35.4708,
    "longitude": -108.44206
  },
  {
    "opis_id": 1597,
    "name": "7-ELEVEN #36156",
    "city": "Eighty Four",
    "state": "PA",
    "price_per_gallon": 4.999,
    "latitude": 40.18174,
    "longitude": -80.13311
  },
  {
    "opis_id": 1602,
    "name": "CIRCLE K #2723387",
    "city": "Beaumont",
    "state": "MS",
    "price_per_gallon": 3.56566666,
    "latitude": 31.16935,
    "longitude": -88.92004
  },
  {
    "opis_id": 1606,
    "name": "DONNAS TRAVEL PLAZA",
    "city": "Marysville",
    "state": "WA",
    "price_per_gallon": 4.559,
    "latitude": 48.05176,
    "longitude": -122.17708
  },
  {
    "opis_id": 1610,
    "name": "TA BALTIMORE TRAVEL CENTER",
    "city": "Baltimore",
    "state": "MD",
    "price_per_gallon": 4.759,
    "latitude": 39.29038,
    "longitude": -76.61219
  },
  {
    "opis_id": 1618,
    "name": "GO MART FOOD STORE #33",
    "city": "Ripley",
    "state": "WV",
    "price_per_gallon": 3.499,
    "latitude": 38.8187,
    "longitude": -81.71069
  },
  {
    "opis_id": 1621,
    "name": "CIRCLE K #2709337",
    "city": "Birmingham",
    "state": "AL",
    "price_per_gallon": 3.489,
    "latitude": 33.52066,
    "longitude": -86.80249
  },
  {
    "opis_id": 1622,
    "name": "RACEWAY #6973",
    "city": "Bridgeport",
    "state": "TX",
    "price_per_gallon": 2.78233333,
    "latitude": 33.21012,
    "longitude": -97.75476
  },
  {
    "opis_id": 1623,
    "name": "SAPP BROS TRAVEL CENTER",
    "city": "Commerce City",
    "state": "CO",
    "price_per_gallon": 3.389,
    "latitude": 39.80832,
    "longitude": -104.93387
  },
  {
    "opis_id": 1625,
    "name": "PILOT TRAVEL CENTERS #60",
    "city": "Bowman",
    "state": "SC",
    "price_per_gallon": 3.43233333,
    "latitude": 33.34877,
    "longitude": -80.68287
  },
  {
    "opis_id": 1632,
    "name": "PILOT TRAVEL CENTERS #266",
    "city": "Las Cruces",
    "state": "NM",
    "price_per_gallon": 3.19066666,
    "latitude": 32.31232,
    "longitude": -106.77834
  },
  {
    "opis_id": 1633,
    "name": "7-ELEVEN #36302",
    "city": "Von Ormy",
    "state": "TX",
    "price_per_gallon": 3.109,
    "latitude": 29.28913,
    "longitude": -98.64446
  },
  {
    "opis_id": 1634,
    "name": "PILOT TRAVEL CENTERS #40",
    "city": "Oak Creek",
    "state": "WI",
    "price_per_gallon": 3.889,
    "latitude": 42.88585,
    "longitude": -87.86314
  },
  {
    "opis_id": 1644,
    "name": "ALLSUPS CONVENIENCE STORE #2414",
    "city": "Roscoe",
    "state": "TX",
    "price_per_gallon": 2.929,
    "latitude": 32.44595,
    "longitude": -100.53872
  },
  {
    "opis_id": 1646,
    "name": "SPEEDWAY #8310",
    "city": "Plymouth",
    "state": "IN",
    "price_per_gallon": 3.609,
    "latitude": 41.34366,
    "longitude": -86.30973
  },
  {
    "opis_id": 1647,
    "name": "SPEEDWAY #8305",
    "city": "Hammond",
    "state": "IN",
    "price_per_gallon": 3.76566666,
    "latitude": 41.58337,
    "longitude": -87.50004
  },
  {
    "opis_id": 1653,
    "name": "ROAD RANGER #187",
    "city": "Chicago",
    "state": "IL",
    "price_per_gallon": 3.569,
    "latitude": 41.85003,
    "longitude": -87.65005
  },
  {
    "opis_id": 1654,
    "name": "CEFCO #3",
    "city": "Cameron",
    "state": "TX",
    "price_per_gallon": 2.989,
    "latitude": 30.85325,
    "longitude": -96.97693
  },
  {
    "opis_id": 1661,
    "name": "CHEVRON",
    "city": "Calhoun",
    "state": "LA",
    "price_per_gallon": 3.159,
    "latitude": 32.51265,
    "longitude": -92.35847
  },
  {
    "opis_id": 1669,
    "name": "BETTY BEAVERS TRUCKSTOP",
    "city": "Fultonville",
    "state": "NY",
    "price_per_gallon": 3.149,
    "latitude": 42.94785,
    "longitude": -74.37041
  },
  {
    "opis_id": 1670,
    "name": "Petro Stopping Center #54",
    "city": "Joplin",
    "state": "MO",
    "price_per_gallon": 3.449,
    "latitude": 37.08423,
    "longitude": -94.51328
  },
  {
    "opis_id": 1671,
    "name": "LOVES TRAVEL STOP #412",
    "city": "Dunn",
    "state": "NC",
    "price_per_gallon": 3.699,
    "latitude": 35.30627,
    "longitude": -78.6089
  },
  {
    "opis_id": 1672,
    "name": "HANA TRAVEL PLAZA",
    "city": "Amarillo",
    "state": "TX",
    "price_per_gallon": 2.899,
    "latitude": 35.222,
    "longitude": -101.8313
  },
  {
    "opis_id": 1699,
    "name": "ALLENS FOOD MART280",
    "city": "Sylacauga",
    "state": "AL",
    "price_per_gallon": 3.799,
    "latitude": 33.17317,
    "longitude": -86.25164
  },
  {
    "opis_id": 1700,
    "name": "TOPPS FUEL STOPS",
    "city": "Daingerfield",
    "state": "TX",
    "price_per_gallon": 3.109,
    "latitude": 33.03179,
    "longitude": -94.72187
  },
  {
    "opis_id": 1720,
    "name": "TOOT N TOTUM #120",
    "city": "Liberal",
    "state": "KS",
    "price_per_gallon": 3.01566666,
    "latitude": 37.04308,
    "longitude": -100.921
  },
  {
    "opis_id": 1749,
    "name": "HIGHWAY 96 FUEL STOP",
    "city": "Buna",
    "state": "TX",
    "price_per_gallon": 3.149,
    "latitude": 30.43298,
    "longitude": -93.9624
  },
  {
    "opis_id": 1753,
    "name": "PWI #169",
    "city": "Abbott",
    "state": "TX",
    "price_per_gallon": 2.899,
    "latitude": 31.88488,
    "longitude": -97.07334
  },
  {
    "opis_id": 1773,
    "name": "M-46 AUTO TRUCK PLAZA",
    "city": "Howard City",
    "state": "MI",
    "price_per_gallon": 3.099,
    "latitude": 43.39558,
    "longitude": -85.46782
  },
  {
    "opis_id": 1791,
    "name": "PILOT TRAVEL CENTERS #257",
    "city": "Midland",
    "state": "TX",
    "price_per_gallon": 3.56566666,
    "latitude": 31.99735,
    "longitude": -102.07791
  },
  {
    "opis_id": 1807,
    "name": "LOVES TRAVEL STOP #229",
    "city": "Panhandle",
    "state": "TX",
    "price_per_gallon": 3.314,
    "latitude": 35.3456,
    "longitude": -101.38044
  },
  {
    "opis_id": 1810,
    "name": "KENT KWIK #804",
    "city": "Perryton",
    "state": "TX",
    "price_per_gallon": 2.999,
    "latitude": 36.40003,
    "longitude": -100.80265
  },
  {
    "opis_id": 1829,
    "name": "PILOT TRAVEL CENTERS #96",
    "city": "Okeechobee",
    "state": "FL",
    "price_per_gallon": 3.699,
    "latitude": 27.24393,
    "longitude": -80.82978
  },
  {
    "opis_id": 1832,
    "name": "CORNER FUEL CENTER",
    "city": "Hattiesburg",
    "state": "MS",
    "price_per_gallon": 3.299,
    "latitude": 31.32712,
    "longitude": -89.29034
  },
  {
    "opis_id": 1834,
    "name": "PUMP N PANTRY #15",
    "city": "Marshall",
    "state": "TX",
    "price_per_gallon": 2.899,
    "latitude": 32.54487,
    "longitude": -94.36742
  },
  {
    "opis_id": 1849,
    "name": "Stripes #42457",
    "city": "San Angelo",
    "state": "TX",
    "price_per_gallon": 3.244,
    "latitude": 31.46377,
    "longitude": -100.43704
  },
  {
    "opis_id": 1855,
    "name": "EXIT 76 AUTO TRUCK PLAZA",
    "city": "Byron Center",
    "state": "MI",
    "price_per_gallon": 3.499,
    "latitude": 42.81225,
    "longitude": -85.72281
  },
  {
    "opis_id": 1858,
    "name": "FLYING J TRAVEL PLAZA #737",
    "city": "San Antonio",
    "state": "TX",
    "price_per_gallon": 3.224,
    "latitude": 29.42412,
    "longitude": -98.49363
  },
  {
    "opis_id": 1859,
    "name": "GO MART FOOD STORE #44",
    "city": "Sutton",
    "state": "WV",
    "price_per_gallon": 3.559,
    "latitude": 38.66454,
    "longitude": -80.70982
  },
  {
    "opis_id": 1860,
    "name": "MR FUEL #278",
    "city": "Walton",
    "state": "KY",
    "price_per_gallon": 3.019,
    "latitude": 38.87562,
    "longitude": -84.61022
  },
  {
    "opis_id": 1861,
    "name": "PETRO STOPPING CENTER #315",
    "city": "Kingman",
    "state": "AZ",
    "price_per_gallon": 3.899,
    "latitude": 35.18944,
    "longitude": -114.05301
  },
  {
    "opis_id": 1866,
    "name": "PRI MART FUEL CENTER",
    "city": "Benton Harbor",
    "state": "MI",
    "price_per_gallon": 3.499,
    "latitude": 42.11671,
    "longitude": -86.45419
  },
  {
    "opis_id": 1873,
    "name": "JDS TRUCKSTOP",
    "city": "Niles",
    "state": "MI",
    "price_per_gallon": 3.749,
    "latitude": 41.82977,
    "longitude": -86.25418
  },
  {
    "opis_id": 1874,
    "name": "CIRCLE K #2744529",
    "city": "Seagoville",
    "state": "TX",
    "price_per_gallon": 2.95066666,
    "latitude": 32.63958,
    "longitude": -96.53832
  },
  {
    "opis_id": 1879,
    "name": "HOLIDAY STATIONSTORE #3552",
    "city": "Lakeville",
    "state": "MN",
    "price_per_gallon": 3.549,
    "latitude": 44.64969,
    "longitude": -93.24272
  },
  {
    "opis_id": 1888,
    "name": "STRIPES 7FLEET #42449",
    "city": "Sterling City",
    "state": "TX",
    "price_per_gallon": 3.28066666,
    "latitude": 31.83625,
    "longitude": -100.98483
  },
  {
    "opis_id": 1889,
    "name": "TOOT N TOTUM #105",
    "city": "Stratford",
    "state": "TX",
    "price_per_gallon": 2.96566666,
    "latitude": 36.33614,
    "longitude": -102.07212
  },
  {
    "opis_id": 1893,
    "name": "MIKE MCDONALD TRUCK STOP",
    "city": "Terrell",
    "state": "TX",
    "price_per_gallon": 2.87066666,
    "latitude": 32.73596,
    "longitude": -96.27526
  },
  {
    "opis_id": 1894,
    "name": "CIRCLE K #2741544",
    "city": "Three Rivers",
    "state": "TX",
    "price_per_gallon": 3.06566666,
    "latitude": 28.46027,
    "longitude": -98.18251
  },
  {
    "opis_id": 1897,
    "name": "YESWAY #1077",
    "city": "Tye",
    "state": "TX",
    "price_per_gallon": 2.87566666,
    "latitude": 32.45762,
    "longitude": -99.87148
  },
  {
    "opis_id": 1905,
    "name": "LUCKY TRUCK STOP",
    "city": "Whitesboro",
    "state": "TX",
    "price_per_gallon": 2.88566666,
    "latitude": 33.65622,
    "longitude": -96.90695
  },
  {
    "opis_id": 1909,
    "name": "RALLYSTOP #1",
    "city": "Cedar City",
    "state": "UT",
    "price_per_gallon": 3.459,
    "latitude": 37.67748,
    "longitude": -113.06189
  },
  {
    "opis_id": 1914,
    "name": "LOVES TRAVEL STOP #792",
    "city": "Green River",
    "state": "UT",
    "price_per_gallon": 3.709,
    "latitude": 38.99525,
    "longitude": -110.1618
  },
  {
    "opis_id": 1921,
    "name": "BELL TRUCK STOP",
    "city": "Park City",
    "state": "UT",
    "price_per_gallon": 3.45233333,
    "latitude": 40.64606,
    "longitude": -111.49797
  },
  {
    "opis_id": 1923,
    "name": "SCENIC QUIK STOP",
    "city": "Salina",
    "state": "UT",
    "price_per_gallon": 3.459,
    "latitude": 38.95774,
    "longitude": -111.85993
  },
  {
    "opis_id": 1930,
    "name": "CASEYS #3058",
    "city": "Wellington",
    "state": "KS",
    "price_per_gallon": 3.299,
    "latitude": 37.2653,
    "longitude": -97.37171
  },
  {
    "opis_id": 1931,
    "name": "RBS ONE STOP",
    "city": "Woods Cross",
    "state": "UT",
    "price_per_gallon": 3.459,
    "latitude": 40.87161,
    "longitude": -111.89216
  },
  {
    "opis_id": 1934,
    "name": "CIRCLE K #2723710",
    "city": "Austinville",
    "state": "VA",
    "price_per_gallon": 3.24066666,
    "latitude": 36.85123,
    "longitude": -80.91202
  },
  {
    "opis_id": 1936,
    "name": "QUICK STOP MARKET #36",
    "city": "Bristol",
    "state": "VA",
    "price_per_gallon": 3.399,
    "latitude": 36.59649,
    "longitude": -82.18847
  },
  {
    "opis_id": 1940,
    "name": "7-ELEVEN #40063",
    "city": "Dublin",
    "state": "VA",
    "price_per_gallon": 3.199,
    "latitude": 37.10568,
    "longitude": -80.68534
  },
  {
    "opis_id": 1944,
    "name": "LOVES TRAVEL STOPS #399",
    "city": "Lambsburg",
    "state": "VA",
    "price_per_gallon": 3.589,
    "latitude": 36.58541,
    "longitude": -80.76118
  },
  {
    "opis_id": 1950,
    "name": "7-ELEVEN #34515",
    "city": "King George",
    "state": "VA",
    "price_per_gallon": 3.399,
    "latitude": 38.26818,
    "longitude": -77.18442
  },
  {
    "opis_id": 1951,
    "name": "CIRCLE K #2723713",
    "city": "Staunton",
    "state": "VA",
    "price_per_gallon": 3.38566666,
    "latitude": 38.14991,
    "longitude": -79.0732
  },
  {
    "opis_id": 1953,
    "name": "FAS MART #3555",
    "city": "Gordonsville",
    "state": "VA",
    "price_per_gallon": 3.699,
    "latitude": 38.13736,
    "longitude": -78.18778
  },
  {
    "opis_id": 1954,
    "name": "Joe's Kwik Mart #8409",
    "city": "Suffolk",
    "state": "VA",
    "price_per_gallon": 3.03233333,
    "latitude": 36.72836,
    "longitude": -76.58496
  },
  {
    "opis_id": 1956,
    "name": "PILOT TRAVEL CENTER #4642",
    "city": "Toms Brook",
    "state": "VA",
    "price_per_gallon": 3.659,
    "latitude": 38.9465,
    "longitude": -78.43917
  },
  {
    "opis_id": 1958,
    "name": "SPEEDWAY #4618",
    "city": "Wytheville",
    "state": "VA",
    "price_per_gallon": 3.41233333,
    "latitude": 36.94845,
    "longitude": -81.08481
  },
  {
    "opis_id": 1960,
    "name": "MAPLEWOOD IRVING",
    "city": "Montpelier",
    "state": "VT",
    "price_per_gallon": 3.699,
    "latitude": 44.26006,
    "longitude": -72.57539
  },
  {
    "opis_id": 1962,
    "name": "SUPER QUIK",
    "city": "Grayson",
    "state": "KY",
    "price_per_gallon": 3.799,
    "latitude": 38.33258,
    "longitude": -82.9485
  },
  {
    "opis_id": 1976,
    "name": "One9 #963",
    "city": "Spokane",
    "state": "WA",
    "price_per_gallon": 3.959,
    "latitude": 47.65966,
    "longitude": -117.42908
  },
  {
    "opis_id": 1977,
    "name": "GEE CEES TRUCK STOP",
    "city": "Toledo",
    "state": "WA",
    "price_per_gallon": 3.839,
    "latitude": 46.43983,
    "longitude": -122.84678
  },
  {
    "opis_id": 1983,
    "name": "KWIK TRIP #427",
    "city": "Bloomer",
    "state": "WI",
    "price_per_gallon": 3.41566666,
    "latitude": 45.10024,
    "longitude": -91.48877
  },
  {
    "opis_id": 1985,
    "name": "Camp Douglas BP",
    "city": "Camp Douglas",
    "state": "WI",
    "price_per_gallon": 3.154,
    "latitude": 43.92247,
    "longitude": -90.27152
  },
  {
    "opis_id": 2000,
    "name": "RIVER CITY TRAVEL PLAZA",
    "city": "Marinette",
    "state": "WI",
    "price_per_gallon": 3.399,
    "latitude": 45.09998,
    "longitude": -87.63066
  },
  {
    "opis_id": 2002,
    "name": "KWIK TRIP #222",
    "city": "Superior",
    "state": "WI",
    "price_per_gallon": 3.339,
    "latitude": 46.72077,
    "longitude": -92.10408
  },
  {
    "opis_id": 2009,
    "name": "KWIK TRIP #139",
    "city": "Sheboygan",
    "state": "WI",
    "price_per_gallon": 3.29066666,
    "latitude": 43.75083,
    "longitude": -87.71453
  },
  {
    "opis_id": 2020,
    "name": "BFS FOODS #72",
    "city": "Bruceton Mills",
    "state": "WV",
    "price_per_gallon": 3.499,
    "latitude": 39.65869,
    "longitude": -79.64116
  },
  {
    "opis_id": 2021,
    "name": "GO MART FOOD STORE #59",
    "city": "Huntington",
    "state": "WV",
    "price_per_gallon": 3.499,
    "latitude": 38.41925,
    "longitude": -82.44515
  },
  {
    "opis_id": 2022,
    "name": "GO MART FOOD STORE #86",
    "city": "Ivydale",
    "state": "WV",
    "price_per_gallon": 3.599,
    "latitude": 38.53565,
    "longitude": -81.03483
  },
  {
    "opis_id": 2029,
    "name": "HOMAX SERVICE",
    "city": "Mills",
    "state": "WY",
    "price_per_gallon": 3.169,
    "latitude": 42.84052,
    "longitude": -106.36586
  },
  {
    "opis_id": 2030,
    "name": "GHOST TOWN FUEL STOP",
    "city": "Casper",
    "state": "WY",
    "price_per_gallon": 3.429,
    "latitude": 42.86663,
    "longitude": -106.31308
  },
  {
    "opis_id": 2034,
    "name": "TA CHEYENNE TRAVEL CENTER",
    "city": "Cheyenne",
    "state": "WY",
    "price_per_gallon": 3.699,
    "latitude": 41.13998,
    "longitude": -104.82025
  },
  {
    "opis_id": 2040,
    "name": "Fast Stop Travel Centers #1133",
    "city": "Douglas",
    "state": "WY",
    "price_per_gallon": 3.499,
    "latitude": 42.75969,
    "longitude": -105.38221
  },
  {
    "opis_id": 2041,
    "name": "PINE BLUFFS SINCLAIR",
    "city": "Pine Bluffs",
    "state": "WY",
    "price_per_gallon": 3.699,
    "latitude": 41.18193,
    "longitude": -104.06912
  },
  {
    "opis_id": 2044,
    "name": "One9 #1251",
    "city": "Wamsutter",
    "state": "WY",
    "price_per_gallon": 3.499,
    "latitude": 41.67301,
    "longitude": -107.97925
  },
  {
    "opis_id": 2074,
    "name": "STRIPES #40522",
    "city": "San Antonio",
    "state": "TX",
    "price_per_gallon": 3.059,
    "latitude": 29.42412,
    "longitude": -98.49363
  },
  {
    "opis_id": 2076,
    "name": "ALLSUPS CONVENIENCE STORE #2159",
    "city": "Seymour",
    "state": "TX",
    "price_per_gallon": 3.299,
    "latitude": 33.59426,
    "longitude": -99.26035
  },
  {
    "opis_id": 2078,
    "name": "ALLSUPS CONVENIENCE STORE #2366",
    "city": "Slaton",
    "state": "TX",
    "price_per_gallon": 2.969,
    "latitude": 33.43731,
    "longitude": -101.64349
  },
  {
    "opis_id": 2084,
    "name": "Main Street Market #112",
    "city": "Wickett",
    "state": "TX",
    "price_per_gallon": 2.879,
    "latitude": 31.57013,
    "longitude": -103.00099
  },
  {
    "opis_id": 2087,
    "name": "LWS TRUCK STOP",
    "city": "Logan",
    "state": "UT",
    "price_per_gallon": 3.42566666,
    "latitude": 41.73549,
    "longitude": -111.83439
  },
  {
    "opis_id": 2088,
    "name": "FLYING J TRAVEL PLAZA #773",
    "city": "Richfield",
    "state": "UT",
    "price_per_gallon": 3.699,
    "latitude": 38.77247,
    "longitude": -112.08409
  },
  {
    "opis_id": 2089,
    "name": "FLYING J TRAVEL PLAZA #774",
    "city": "Snowville",
    "state": "UT",
    "price_per_gallon": 3.749,
    "latitude": 41.96548,
    "longitude": -112.7097
  },
  {
    "opis_id": 2115,
    "name": "KWIK TRIP #838",
    "city": "Reedsburg",
    "state": "WI",
    "price_per_gallon": 3.194,
    "latitude": 43.53248,
    "longitude": -90.00263
  },
  {
    "opis_id": 2125,
    "name": "BIG D #44",
    "city": "Laramie",
    "state": "WY",
    "price_per_gallon": 3.249,
    "latitude": 41.31137,
    "longitude": -105.5911
  },
  {
    "opis_id": 2144,
    "name": "Mountain View Truck Stop",
    "city": "Thurmont",
    "state": "MD",
    "price_per_gallon": 4.099,
    "latitude": 39.62371,
    "longitude": -77.41082
  },
  {
    "opis_id": 2152,
    "name": "SPEEDWAY #4709",
    "city": "Fairmont",
    "state": "MN",
    "price_per_gallon": 3.299,
    "latitude": 43.65218,
    "longitude": -94.46108
  },
  {
    "opis_id": 2167,
    "name": "PILOT TRAVEL CENTERS #134",
    "city": "Saint Cloud",
    "state": "MN",
    "price_per_gallon": 3.28733333,
    "latitude": 45.5608,
    "longitude": -94.16249
  },
  {
    "opis_id": 2182,
    "name": "PILOT TRAVEL CENTER #4649",
    "city": "Raphine",
    "state": "VA",
    "price_per_gallon": 3.659,
    "latitude": 37.93735,
    "longitude": -79.23281
  },
  {
    "opis_id": 2192,
    "name": "GO MART FOOD STORE #51",
    "city": "Mount Nebo",
    "state": "WV",
    "price_per_gallon": 3.599,
    "latitude": 38.20011,
    "longitude": -80.85121
  },
  {
    "opis_id": 2194,
    "name": "A AND A TRUCKSTOP",
    "city": "Jackson",
    "state": "OH",
    "price_per_gallon": 3.799,
    "latitude": 39.05202,
    "longitude": -82.63655
  },
  {
    "opis_id": 2196,
    "name": "Certified Oil #400410",
    "city": "Ravenna",
    "state": "OH",
    "price_per_gallon": 3.31566666,
    "latitude": 41.15756,
    "longitude": -81.24205
  },
  {
    "opis_id": 2204,
    "name": "NATURAL BRIDGE SHELL",
    "city": "Lynn",
    "state": "AL",
    "price_per_gallon": 3.68233333,
    "latitude": 34.04705,
    "longitude": -87.54974
  },
  {
    "opis_id": 2209,
    "name": "Roadrunner #471",
    "city": "North Little Rock",
    "state": "AR",
    "price_per_gallon": 3.03233333,
    "latitude": 34.76954,
    "longitude": -92.26709
  },
  {
    "opis_id": 2219,
    "name": "PILOT TRAVEL CENTER #66",
    "city": "Braselton",
    "state": "GA",
    "price_per_gallon": 3.27233333,
    "latitude": 34.10927,
    "longitude": -83.76267
  },
  {
    "opis_id": 2223,
    "name": "PO JOS GAS N GO",
    "city": "Register",
    "state": "GA",
    "price_per_gallon": 3.23233333,
    "latitude": 32.36712,
    "longitude": -81.884
  },
  {
    "opis_id": 2227,
    "name": "SPEEDWAY #7448",
    "city": "Naperville",
    "state": "IL",
    "price_per_gallon": 3.299,
    "latitude": 41.78586,
    "longitude": -88.14729
  },
  {
    "opis_id": 2255,
    "name": "S&G #36",
    "city": "Millbury",
    "state": "OH",
    "price_per_gallon": 3.49233333,
    "latitude": 41.56616,
    "longitude": -83.42465
  },
  {
    "opis_id": 2267,
    "name": "Circle K #4703917",
    "city": "Cross Plains",
    "state": "TN",
    "price_per_gallon": 2.949,
    "latitude": 36.54866,
    "longitude": -86.69611
  },
  {
    "opis_id": 2283,
    "name": "CIRCLE K #2707321",
    "city": "Bartow",
    "state": "FL",
    "price_per_gallon": 3.52233333,
    "latitude": 27.89641,
    "longitude": -81.84314
  },
  {
    "opis_id": 2287,
    "name": "SAC SHOP #511",
    "city": "Bedford",
    "state": "PA",
    "price_per_gallon": 4.099,
    "latitude": 40.01869,
    "longitude": -78.50391
  },
  {
    "opis_id": 2306,
    "name": "SCOTCHMAN #3894",
    "city": "Rock Hill",
    "state": "SC",
    "price_per_gallon": 3.079,
    "latitude": 34.92487,
    "longitude": -81.02508
  },
  {
    "opis_id": 2310,
    "name": "MAPCO #3686",
    "city": "Chattanooga",
    "state": "TN",
    "price_per_gallon": 2.889,
    "latitude": 35.04563,
    "longitude": -85.30968
  },
  {
    "opis_id": 2311,
    "name": "SHELL",
    "city": "Christiana",
    "state": "TN",
    "price_per_gallon": 3.13233333,
    "latitude": 35.71007,
    "longitude": -86.39944
  },
  {
    "opis_id": 2331,
    "name": "PINNERS POINT",
    "city": "Portsmouth",
    "state": "VA",
    "price_per_gallon": 3.499,
    "latitude": 36.83543,
    "longitude": -76.29827
  },
  {
    "opis_id": 2336,
    "name": "FLYING J TRAVEL PLAZA #754",
    "city": "Wytheville",
    "state": "VA",
    "price_per_gallon": 3.549,
    "latitude": 36.94845,
    "longitude": -81.08481
  },
  {
    "opis_id": 2340,
    "name": "RSTORE #4478",
    "city": "Prentice",
    "state": "WI",
    "price_per_gallon": 3.039,
    "latitude": 45.54607,
    "longitude": -90.28654
  },
  {
    "opis_id": 2557,
    "name": "PWI #106",
    "city": "Royse City",
    "state": "TX",
    "price_per_gallon": 2.899,
    "latitude": 32.97512,
    "longitude": -96.33248
  },
  {
    "opis_id": 2602,
    "name": "PILOT TRAVEL CENTERS #9",
    "city": "Franklin",
    "state": "OH",
    "price_per_gallon": 3.35233333,
    "latitude": 39.55895,
    "longitude": -84.30411
  },
  {
    "opis_id": 2623,
    "name": "TA JANESVILLE TRAVEL CENTER",
    "city": "Janesville",
    "state": "WI",
    "price_per_gallon": 3.299,
    "latitude": 42.68279,
    "longitude": -89.01872
  },
  {
    "opis_id": 2626,
    "name": "WEST END SINCLAIR",
    "city": "Rawlins",
    "state": "WY",
    "price_per_gallon": 3.319,
    "latitude": 41.79107,
    "longitude": -107.23866
  },
  {
    "opis_id": 2629,
    "name": "PILOT TRAVEL CENTERS #253",
    "city": "Penns Grove",
    "state": "NJ",
    "price_per_gallon": 3.989,
    "latitude": 39.72956,
    "longitude": -75.46797
  },
  {
    "opis_id": 2635,
    "name": "FLYING J #584",
    "city": "Aurora",
    "state": "OR",
    "price_per_gallon": 3.859,
    "latitude": 45.23095,
    "longitude": -122.75593
  },
  {
    "opis_id": 2638,
    "name": "PIT STOP TRAVEL CENTER",
    "city": "Riverton",
    "state": "WY",
    "price_per_gallon": 4.399,
    "latitude": 43.02496,
    "longitude": -108.3801
  },
  {
    "opis_id": 2640,
    "name": "LITTLE NASHVILLE",
    "city": "Nashville",
    "state": "IL",
    "price_per_gallon": 3.299,
    "latitude": 38.34366,
    "longitude": -89.38064
  },
  {
    "opis_id": 2644,
    "name": "FREDERICKS TRAVEL CENTER",
    "city": "Erie",
    "state": "CO",
    "price_per_gallon": 3.499,
    "latitude": 40.05026,
    "longitude": -105.04998
  },
  {
    "opis_id": 2756,
    "name": "PAR MAR FOOD STORE #89",
    "city": "Mineral Wells",
    "state": "WV",
    "price_per_gallon": 3.499,
    "latitude": 39.178,
    "longitude": -81.51207
  },
  {
    "opis_id": 2761,
    "name": "PONY EXPRESS SERVICE CENTER",
    "city": "Hanover",
    "state": "KS",
    "price_per_gallon": 2.95566666,
    "latitude": 39.89389,
    "longitude": -96.87947
  },
  {
    "opis_id": 2764,
    "name": "LOVES TRAVEL STOP #046",
    "city": "Hooker",
    "state": "OK",
    "price_per_gallon": 3.56233333,
    "latitude": 36.86003,
    "longitude": -101.2135
  },
  {
    "opis_id": 2765,
    "name": "LOVES TRAVEL STOP #023",
    "city": "Lamar",
    "state": "CO",
    "price_per_gallon": 3.46233333,
    "latitude": 38.08723,
    "longitude": -102.62075
  },
  {
    "opis_id": 2772,
    "name": "PILOT TRAVEL CENTERS #29",
    "city": "Fremont",
    "state": "IN",
    "price_per_gallon": 3.899,
    "latitude": 41.73088,
    "longitude": -84.93274
  },
  {
    "opis_id": 2779,
    "name": "Stinker #121",
    "city": "Heyburn",
    "state": "ID",
    "price_per_gallon": 3.56066666,
    "latitude": 42.55852,
    "longitude": -113.7639
  },
  {
    "opis_id": 2788,
    "name": "JIFFY MART #451",
    "city": "Wells River",
    "state": "VT",
    "price_per_gallon": 3.569,
    "latitude": 44.15423,
    "longitude": -72.04704
  },
  {
    "opis_id": 2805,
    "name": "Fast Stop Travel Centers #1145",
    "city": "Downey",
    "state": "ID",
    "price_per_gallon": 3.799,
    "latitude": 42.42853,
    "longitude": -112.12441
  },
  {
    "opis_id": 2807,
    "name": "SUDDEN SERVICE #25",
    "city": "Clarksville",
    "state": "TN",
    "price_per_gallon": 3.30733333,
    "latitude": 36.52977,
    "longitude": -87.35945
  },
  {
    "opis_id": 2811,
    "name": "KWIK FILL #22",
    "city": "Weedsport",
    "state": "NY",
    "price_per_gallon": 3.899,
    "latitude": 43.04868,
    "longitude": -76.56272
  },
  {
    "opis_id": 2817,
    "name": "Chevron #382354",
    "city": "Chehalis",
    "state": "WA",
    "price_per_gallon": 4.299,
    "latitude": 46.66205,
    "longitude": -122.96402
  },
  {
    "opis_id": 2848,
    "name": "TA TONOPAH TRAVEL CENTER",
    "city": "Tonopah",
    "state": "AZ",
    "price_per_gallon": 3.939,
    "latitude": 33.49365,
    "longitude": -112.93712
  },
  {
    "opis_id": 2851,
    "name": "SPEEDWAY #2958",
    "city": "Yuma",
    "state": "AZ",
    "price_per_gallon": 3.479,
    "latitude": 32.72532,
    "longitude": -114.6244
  },
  {
    "opis_id": 2862,
    "name": "TA TALLULAH TRAVEL CENTER",
    "city": "Tallulah",
    "state": "LA",
    "price_per_gallon": 3.209,
    "latitude": 32.40848,
    "longitude": -91.18678
  },
  {
    "opis_id": 2864,
    "name": "KUM & GO #0493",
    "city": "Neosho",
    "state": "MO",
    "price_per_gallon": 3.059,
    "latitude": 36.86896,
    "longitude": -94.368
  },
  {
    "opis_id": 2875,
    "name": "CIRCLE K #2744138",
    "city": "Pueblo",
    "state": "CO",
    "price_per_gallon": 3.399,
    "latitude": 38.25445,
    "longitude": -104.60914
  },
  {
    "opis_id": 2883,
    "name": "PILOT TRAVEL CENTER #293",
    "city": "Ocala",
    "state": "FL",
    "price_per_gallon": 3.359,
    "latitude": 29.1872,
    "longitude": -82.14009
  },
  {
    "opis_id": 2885,
    "name": "SP Truckstop & Travel Center",
    "city": "Bainbridge",
    "state": "GA",
    "price_per_gallon": 3.599,
    "latitude": 30.9038,
    "longitude": -84.57547
  },
  {
    "opis_id": 2889,
    "name": "MOULTON COWBOYS",
    "city": "Moulton",
    "state": "AL",
    "price_per_gallon": 3.099,
    "latitude": 34.48121,
    "longitude": -87.29335
  },
  {
    "opis_id": 2891,
    "name": "PETRO STOPPING CENTER #338",
    "city": "Sparks",
    "state": "NV",
    "price_per_gallon": 3.949,
    "latitude": 39.53491,
    "longitude": -119.75269
  },
  {
    "opis_id": 2895,
    "name": "EAGLE TRUCK STOP",
    "city": "New Philadelphia",
    "state": "OH",
    "price_per_gallon": 3.31566666,
    "latitude": 40.48979,
    "longitude": -81.44567
  },
  {
    "opis_id": 2896,
    "name": "NORTH LEWISTON DYNAMART",
    "city": "Lewiston",
    "state": "ID",
    "price_per_gallon": 3.669,
    "latitude": 46.41655,
    "longitude": -117.01766
  },
  {
    "opis_id": 2897,
    "name": "GAS N GO #15",
    "city": "Lyman",
    "state": "WY",
    "price_per_gallon": 3.46566666,
    "latitude": 41.32745,
    "longitude": -110.29293
  },
  {
    "opis_id": 2910,
    "name": "FLYING J TRAVEL PLAZA #685",
    "city": "Fargo",
    "state": "ND",
    "price_per_gallon": 3.569,
    "latitude": 46.87719,
    "longitude": -96.7898
  },
  {
    "opis_id": 2913,
    "name": "ONE9#226",
    "city": "Dandridge",
    "state": "TN",
    "price_per_gallon": 3.259,
    "latitude": 36.01537,
    "longitude": -83.41489
  },
  {
    "opis_id": 2915,
    "name": "TP TRUCK STOP",
    "city": "Fort Hall",
    "state": "ID",
    "price_per_gallon": 3.519,
    "latitude": 43.03325,
    "longitude": -112.43831
  },
  {
    "opis_id": 2917,
    "name": "GOLDYS TRUCK PLAZA",
    "city": "Rustburg",
    "state": "VA",
    "price_per_gallon": 3.519,
    "latitude": 37.27681,
    "longitude": -79.10085
  },
  {
    "opis_id": 2922,
    "name": "LOVES TRAVEL STOP #210",
    "city": "Albuquerque",
    "state": "NM",
    "price_per_gallon": 3.52066666,
    "latitude": 35.08449,
    "longitude": -106.65114
  },
  {
    "opis_id": 2923,
    "name": "LOVES TRAVEL STOP #435",
    "city": "Ruther Glen",
    "state": "VA",
    "price_per_gallon": 3.589,
    "latitude": 37.92875,
    "longitude": -77.45582
  },
  {
    "opis_id": 2924,
    "name": "HWY 190 FUEL STOP",
    "city": "Jasper",
    "state": "TX",
    "price_per_gallon": 3.13233333,
    "latitude": 30.9202,
    "longitude": -93.99658
  },
  {
    "opis_id": 2926,
    "name": "EXIT 77 TRAVEL PLAZA",
    "city": "Harrisburg",
    "state": "PA",
    "price_per_gallon": 3.499,
    "latitude": 40.2737,
    "longitude": -76.88442
  },
  {
    "opis_id": 2929,
    "name": "TA EXPRESS STEELE",
    "city": "Steele",
    "state": "ND",
    "price_per_gallon": 3.599,
    "latitude": 46.85471,
    "longitude": -99.91594
  },
  {
    "opis_id": 2935,
    "name": "CIRCLE K #2726163",
    "city": "Jacksonville",
    "state": "FL",
    "price_per_gallon": 3.299,
    "latitude": 30.33218,
    "longitude": -81.65565
  },
  {
    "opis_id": 2937,
    "name": "FLYING J TRAVEL PLAZA #664",
    "city": "Walton",
    "state": "KY",
    "price_per_gallon": 3.08566666,
    "latitude": 38.87562,
    "longitude": -84.61022
  },
  {
    "opis_id": 2956,
    "name": "PILOT TRAVEL CENTERS #275",
    "city": "Charlotte",
    "state": "NC",
    "price_per_gallon": 3.55233333,
    "latitude": 35.22709,
    "longitude": -80.84313
  },
  {
    "opis_id": 2963,
    "name": "SUPERPUMPER #26",
    "city": "Jamestown",
    "state": "ND",
    "price_per_gallon": 3.629,
    "latitude": 46.91054,
    "longitude": -98.70844
  },
  {
    "opis_id": 2967,
    "name": "PETRO STOPPING CENTER #317",
    "city": "Perrysburg",
    "state": "OH",
    "price_per_gallon": 3.78566666,
    "latitude": 41.557,
    "longitude": -83.62716
  },
  {
    "opis_id": 2968,
    "name": "E-Z MART #4460",
    "city": "Monroe",
    "state": "LA",
    "price_per_gallon": 3.129,
    "latitude": 32.50931,
    "longitude": -92.1193
  },
  {
    "opis_id": 2977,
    "name": "DISCOUNT FUEL",
    "city": "Kadoka",
    "state": "SD",
    "price_per_gallon": 3.229,
    "latitude": 43.83388,
    "longitude": -101.50987
  },
  {
    "opis_id": 2982,
    "name": "CIRCLE K #2723726",
    "city": "Knoxville",
    "state": "AL",
    "price_per_gallon": 3.089,
    "latitude": 33.59177,
    "longitude": -85.89719
  },
  {
    "opis_id": 3003,
    "name": "CHEVRON",
    "city": "Delta",
    "state": "LA",
    "price_per_gallon": 2.994,
    "latitude": 32.3257,
    "longitude": -90.92705
  },
  {
    "opis_id": 3008,
    "name": "BUSY BEE",
    "city": "Live Oak",
    "state": "FL",
    "price_per_gallon": 3.779,
    "latitude": 30.29495,
    "longitude": -82.98402
  },
  {
    "opis_id": 3022,
    "name": "TA GREENCASTLE TRAVEL CENTER",
    "city": "Greencastle",
    "state": "PA",
    "price_per_gallon": 3.959,
    "latitude": 39.79037,
    "longitude": -77.72777
  },
  {
    "opis_id": 3030,
    "name": "Mr Ts Riverside",
    "city": "Cardwell",
    "state": "MO",
    "price_per_gallon": 3.199,
    "latitude": 36.04701,
    "longitude": -90.29288
  },
  {
    "opis_id": 3064,
    "name": "PORTS TO PLAINS TRAVEL PLAZA",
    "city": "Lamar",
    "state": "CO",
    "price_per_gallon": 3.399,
    "latitude": 38.08723,
    "longitude": -102.62075
  },
  {
    "opis_id": 3086,
    "name": "SPEEDWAY #4638",
    "city": "Madison Heights",
    "state": "VA",
    "price_per_gallon": 3.49566666,
    "latitude": 37.43098,
    "longitude": -79.12308
  },
  {
    "opis_id": 3093,
    "name": "RSTORE #4488",
    "city": "Merrill",
    "state": "WI",
    "price_per_gallon": 3.24066666,
    "latitude": 45.18052,
    "longitude": -89.68346
  },
  {
    "opis_id": 3096,
    "name": "HOBO PANTRY #6",
    "city": "Dothan",
    "state": "AL",
    "price_per_gallon": 3.959,
    "latitude": 31.22323,
    "longitude": -85.39049
  },
  {
    "opis_id": 3118,
    "name": "MOBIL",
    "city": "Champlain",
    "state": "NY",
    "price_per_gallon": 3.799,
    "latitude": 44.98643,
    "longitude": -73.44653
  },
  {
    "opis_id": 3128,
    "name": "TA ATLANTA SOUTH TRAVEL CENTER",
    "city": "Jackson",
    "state": "GA",
    "price_per_gallon": 3.334,
    "latitude": 33.29457,
    "longitude": -83.96602
  },
  {
    "opis_id": 3138,
    "name": "TA EXPRESS #6264",
    "city": "Grand Junction",
    "state": "CO",
    "price_per_gallon": 4.049,
    "latitude": 39.06387,
    "longitude": -108.55065
  },
  {
    "opis_id": 3139,
    "name": "CHEROKEE TRAVEL MART",
    "city": "Calumet",
    "state": "OK",
    "price_per_gallon": 3.10566666,
    "latitude": 35.60116,
    "longitude": -98.11867
  },
  {
    "opis_id": 3148,
    "name": "YESWAY #1038",
    "city": "Neosho",
    "state": "MO",
    "price_per_gallon": 3.059,
    "latitude": 36.86896,
    "longitude": -94.368
  },
  {
    "opis_id": 3155,
    "name": "QUIK MART #18",
    "city": "Tuscumbia",
    "state": "AL",
    "price_per_gallon": 3.00733333,
    "latitude": 34.7312,
    "longitude": -87.70253
  },
  {
    "opis_id": 3163,
    "name": "QUIKTRIP #71",
    "city": "Tulsa",
    "state": "OK",
    "price_per_gallon": 3.039,
    "latitude": 36.15398,
    "longitude": -95.99277
  },
  {
    "opis_id": 3164,
    "name": "QUIKTRIP #102",
    "city": "Tulsa",
    "state": "OK",
    "price_per_gallon": 3.039,
    "latitude": 36.15398,
    "longitude": -95.99277
  },
  {
    "opis_id": 3165,
    "name": "LOVES TRAVEL STOP #213",
    "city": "Tonkawa",
    "state": "OK",
    "price_per_gallon": 3.584,
    "latitude": 36.67837,
    "longitude": -97.31004
  },
  {
    "opis_id": 3167,
    "name": "JASPER FOOD MART",
    "city": "Jasper",
    "state": "AL",
    "price_per_gallon": 3.229,
    "latitude": 33.83122,
    "longitude": -87.27751
  },
  {
    "opis_id": 3171,
    "name": "One9 #265",
    "city": "Cookeville",
    "state": "TN",
    "price_per_gallon": 3.084,
    "latitude": 36.16284,
    "longitude": -85.50164
  },
  {
    "opis_id": 3176,
    "name": "BP",
    "city": "New Paris",
    "state": "IN",
    "price_per_gallon": 3.65733333,
    "latitude": 41.50033,
    "longitude": -85.82805
  },
  {
    "opis_id": 3178,
    "name": "ERNIES FUEL STOP #1605",
    "city": "Kent",
    "state": "WA",
    "price_per_gallon": 4.599,
    "latitude": 47.38093,
    "longitude": -122.23484
  },
  {
    "opis_id": 3179,
    "name": "MR FUEL #1020",
    "city": "Lake Station",
    "state": "IN",
    "price_per_gallon": 3.56566666,
    "latitude": 41.57504,
    "longitude": -87.23892
  },
  {
    "opis_id": 3191,
    "name": "BUSY CORNER TRUCK STOP AND MARKET",
    "city": "Manchester",
    "state": "TN",
    "price_per_gallon": 3.049,
    "latitude": 35.48174,
    "longitude": -86.0886
  },
  {
    "opis_id": 3205,
    "name": "CROSSROADS TRUCK STOP STATION",
    "city": "Colman",
    "state": "SD",
    "price_per_gallon": 3.159,
    "latitude": 43.98247,
    "longitude": -96.8145
  },
  {
    "opis_id": 3206,
    "name": "PERHAM OASIS",
    "city": "Perham",
    "state": "MN",
    "price_per_gallon": 3.499,
    "latitude": 46.5944,
    "longitude": -95.57254
  },
  {
    "opis_id": 3215,
    "name": "SHELL TRUCKSTOP",
    "city": "Polk City",
    "state": "FL",
    "price_per_gallon": 3.449,
    "latitude": 28.18251,
    "longitude": -81.82397
  },
  {
    "opis_id": 3216,
    "name": "MAXS #124",
    "city": "Oak Grove",
    "state": "KY",
    "price_per_gallon": 3.04233333,
    "latitude": 37.34421,
    "longitude": -86.75471
  },
  {
    "opis_id": 3221,
    "name": "Pilot #1440",
    "city": "Bald Knob",
    "state": "AR",
    "price_per_gallon": 3.391,
    "latitude": 35.30981,
    "longitude": -91.56791
  },
  {
    "opis_id": 3222,
    "name": "POMPANO TRUCK STOP",
    "city": "Pompano Beach",
    "state": "FL",
    "price_per_gallon": 3.759,
    "latitude": 26.23786,
    "longitude": -80.12477
  },
  {
    "opis_id": 3226,
    "name": "ONE9 #245",
    "city": "Harrisburg",
    "state": "PA",
    "price_per_gallon": 3.609,
    "latitude": 40.2737,
    "longitude": -76.88442
  },
  {
    "opis_id": 3227,
    "name": "ONE9 MR FUEL #64",
    "city": "Summerville",
    "state": "SC",
    "price_per_gallon": 3.219,
    "latitude": 33.0185,
    "longitude": -80.17565
  },
  {
    "opis_id": 3230,
    "name": "STRIPES #40815",
    "city": "Falfurrias",
    "state": "TX",
    "price_per_gallon": 3.299,
    "latitude": 27.22699,
    "longitude": -98.14417
  },
  {
    "opis_id": 3264,
    "name": "TA WEST MEMPHIS TRAVEL CENTER",
    "city": "Earle",
    "state": "AR",
    "price_per_gallon": 3.36733333,
    "latitude": 35.27509,
    "longitude": -90.46677
  },
  {
    "opis_id": 3280,
    "name": "OUTPOST TRUCK STOP",
    "city": "Lusk",
    "state": "WY",
    "price_per_gallon": 3.689,
    "latitude": 42.76247,
    "longitude": -104.45217
  },
  {
    "opis_id": 3281,
    "name": "AMERICAN TRUCK PLAZA",
    "city": "Milton",
    "state": "PA",
    "price_per_gallon": 3.799,
    "latitude": 41.01203,
    "longitude": -76.84774
  },
  {
    "opis_id": 3284,
    "name": "CASEYS #4390",
    "city": "Lamar",
    "state": "MO",
    "price_per_gallon": 3.199,
    "latitude": 37.49505,
    "longitude": -94.27661
  },
  {
    "opis_id": 3297,
    "name": "SAPP BROS TRAVEL CENTER",
    "city": "Cheyenne",
    "state": "WY",
    "price_per_gallon": 3.70066666,
    "latitude": 41.13998,
    "longitude": -104.82025
  },
  {
    "opis_id": 3316,
    "name": "TRUCKOMAT OF N LITTLE ROCK",
    "city": "North Little Rock",
    "state": "AR",
    "price_per_gallon": 3.249,
    "latitude": 34.76954,
    "longitude": -92.26709
  },
  {
    "opis_id": 3326,
    "name": "MIRABITO #61",
    "city": "Central Square",
    "state": "NY",
    "price_per_gallon": 4.299,
    "latitude": 43.28674,
    "longitude": -76.14604
  },
  {
    "opis_id": 3330,
    "name": "TA # 211 GREENLAND TRAVEL CENTER",
    "city": "Greenland",
    "state": "NH",
    "price_per_gallon": 3.759,
    "latitude": 43.0362,
    "longitude": -70.83283
  },
  {
    "opis_id": 3349,
    "name": "QUEEN CITY TRUCK STOP",
    "city": "Meridian",
    "state": "MS",
    "price_per_gallon": 2.939,
    "latitude": 32.36431,
    "longitude": -88.70366
  },
  {
    "opis_id": 3383,
    "name": "E-Express at Central Truck Stop",
    "city": "Oklahoma City",
    "state": "OK",
    "price_per_gallon": 2.879,
    "latitude": 35.46756,
    "longitude": -97.51643
  },
  {
    "opis_id": 3386,
    "name": "LONGMONT TRUCK STOP",
    "city": "Longmont",
    "state": "CO",
    "price_per_gallon": 3.239,
    "latitude": 40.16721,
    "longitude": -105.10193
  },
  {
    "opis_id": 3401,
    "name": "POPS Mart #333",
    "city": "Winnsboro",
    "state": "SC",
    "price_per_gallon": 3.09066666,
    "latitude": 34.3807,
    "longitude": -81.08648
  },
  {
    "opis_id": 3413,
    "name": "COUNTRY GIRL TRUCK STOP",
    "city": "Winnfield",
    "state": "LA",
    "price_per_gallon": 3.319,
    "latitude": 31.92558,
    "longitude": -92.64131
  },
  {
    "opis_id": 3415,
    "name": "JAYS EL CHEAPO FUEL STOP",
    "city": "Metter",
    "state": "GA",
    "price_per_gallon": 3.249,
    "latitude": 32.39712,
    "longitude": -82.06012
  },
  {
    "opis_id": 3418,
    "name": "Par Mar Store #164",
    "city": "Jane Lew",
    "state": "WV",
    "price_per_gallon": 3.999,
    "latitude": 39.10982,
    "longitude": -80.40676
  },
  {
    "opis_id": 3421,
    "name": "ERNIES TRUCK STOP",
    "city": "Federal Way",
    "state": "WA",
    "price_per_gallon": 4.599,
    "latitude": 47.32232,
    "longitude": -122.31262
  },
  {
    "opis_id": 3422,
    "name": "PWI #167",
    "city": "Seguin",
    "state": "TX",
    "price_per_gallon": 2.889,
    "latitude": 29.56884,
    "longitude": -97.96473
  },
  {
    "opis_id": 3427,
    "name": "JOHNNYS MARKET",
    "city": "Fremont",
    "state": "IN",
    "price_per_gallon": 3.699,
    "latitude": 41.73088,
    "longitude": -84.93274
  },
  {
    "opis_id": 3432,
    "name": "PILOT TRAVEL CENTER #34",
    "city": "Remington",
    "state": "IN",
    "price_per_gallon": 3.659,
    "latitude": 40.76087,
    "longitude": -87.15085
  },
  {
    "opis_id": 3435,
    "name": "PWI #168",
    "city": "Georgetown",
    "state": "TX",
    "price_per_gallon": 2.799,
    "latitude": 30.63269,
    "longitude": -97.67723
  },
  {
    "opis_id": 3444,
    "name": "Acme Truck Stop",
    "city": "Orlando",
    "state": "FL",
    "price_per_gallon": 3.449,
    "latitude": 28.53834,
    "longitude": -81.37924
  },
  {
    "opis_id": 3460,
    "name": "CHROME TRUCK STOP",
    "city": "Algona",
    "state": "IA",
    "price_per_gallon": 3.499,
    "latitude": 43.06997,
    "longitude": -94.23302
  },
  {
    "opis_id": 3464,
    "name": "BOISE PETROLEUM LLC",
    "city": "Boise",
    "state": "ID",
    "price_per_gallon": 3.379,
    "latitude": 43.6135,
    "longitude": -116.20345
  },
  {
    "opis_id": 3471,
    "name": "MR FUEL DBA ONE9 #72",
    "city": "Savannah",
    "state": "GA",
    "price_per_gallon": 3.119,
    "latitude": 32.08354,
    "longitude": -81.09983
  },
  {
    "opis_id": 3475,
    "name": "PILOT TRAVEL CENTERS #56",
    "city": "Kannapolis",
    "state": "NC",
    "price_per_gallon": 3.499,
    "latitude": 35.48736,
    "longitude": -80.62173
  },
  {
    "opis_id": 3477,
    "name": "CIRCLE K #4707404",
    "city": "Springfield",
    "state": "VT",
    "price_per_gallon": 3.699,
    "latitude": 43.29841,
    "longitude": -72.48231
  },
  {
    "opis_id": 3479,
    "name": "FAST MARKET #4550",
    "city": "Perry",
    "state": "GA",
    "price_per_gallon": 3.099,
    "latitude": 32.45821,
    "longitude": -83.73157
  },
  {
    "opis_id": 3493,
    "name": "CIRCLE K #2723675",
    "city": "Cartersville",
    "state": "GA",
    "price_per_gallon": 3.08566666,
    "latitude": 34.16533,
    "longitude": -84.80231
  },
  {
    "opis_id": 3519,
    "name": "PILOT TRAVEL CENTERS #431",
    "city": "Orange",
    "state": "TX",
    "price_per_gallon": 3.309,
    "latitude": 30.09299,
    "longitude": -93.73655
  },
  {
    "opis_id": 3522,
    "name": "SUNMART #308",
    "city": "Livingston",
    "state": "TX",
    "price_per_gallon": 2.859,
    "latitude": 30.71103,
    "longitude": -94.93299
  },
  {
    "opis_id": 3526,
    "name": "JOE STOP 99",
    "city": "Anna",
    "state": "OH",
    "price_per_gallon": 3.064,
    "latitude": 40.39449,
    "longitude": -84.17272
  },
  {
    "opis_id": 3530,
    "name": "SPARKYS ONE STOP #22",
    "city": "Jefferson",
    "state": "IA",
    "price_per_gallon": 3.23233333,
    "latitude": 42.01526,
    "longitude": -94.37747
  },
  {
    "opis_id": 3536,
    "name": "PETRO STOPPING CENTER #307",
    "city": "Amarillo",
    "state": "TX",
    "price_per_gallon": 3.279,
    "latitude": 35.222,
    "longitude": -101.8313
  },
  {
    "opis_id": 3539,
    "name": "Bigs 211",
    "city": "Seguin",
    "state": "TX",
    "price_per_gallon": 3.099,
    "latitude": 29.56884,
    "longitude": -97.96473
  },
  {
    "opis_id": 3545,
    "name": "STOCKMENS TRUCK PLAZA",
    "city": "South Saint Paul",
    "state": "MN",
    "price_per_gallon": 3.499,
    "latitude": 44.89274,
    "longitude": -93.03494
  },
  {
    "opis_id": 3580,
    "name": "STINKER I 80 TRAVEL PLAZA",
    "city": "Sinclair",
    "state": "WY",
    "price_per_gallon": 3.759,
    "latitude": 41.77496,
    "longitude": -107.1131
  },
  {
    "opis_id": 3585,
    "name": "CHEVRON",
    "city": "Lovelock",
    "state": "NV",
    "price_per_gallon": 3.499,
    "latitude": 40.17935,
    "longitude": -118.47348
  },
  {
    "opis_id": 3588,
    "name": "BINGO TRUCK STOP",
    "city": "Winnie",
    "state": "TX",
    "price_per_gallon": 2.999,
    "latitude": 29.82022,
    "longitude": -94.38408
  },
  {
    "opis_id": 3592,
    "name": "TA BRIDGER TRAVEL CENTER #188",
    "city": "Fort Bridger",
    "state": "WY",
    "price_per_gallon": 3.71566666,
    "latitude": 41.31662,
    "longitude": -110.38433
  },
  {
    "opis_id": 3593,
    "name": "TA Parowan Travel Center",
    "city": "Parowan",
    "state": "UT",
    "price_per_gallon": 3.70566666,
    "latitude": 37.8422,
    "longitude": -112.828
  },
  {
    "opis_id": 3605,
    "name": "SPEEDYS #6",
    "city": "Saint Joseph",
    "state": "MO",
    "price_per_gallon": 3.169,
    "latitude": 39.76861,
    "longitude": -94.84663
  },
  {
    "opis_id": 3608,
    "name": "FUEL MART #787",
    "city": "Tuscola",
    "state": "IL",
    "price_per_gallon": 3.199,
    "latitude": 39.7992,
    "longitude": -88.2831
  },
  {
    "opis_id": 3614,
    "name": "PILOT TRAVEL CENTERS #35",
    "city": "South Bend",
    "state": "IN",
    "price_per_gallon": 3.799,
    "latitude": 41.68338,
    "longitude": -86.25001
  },
  {
    "opis_id": 3616,
    "name": "PILOT TRAVEL CENTERS #15",
    "city": "Toledo",
    "state": "OH",
    "price_per_gallon": 3.77233333,
    "latitude": 41.66394,
    "longitude": -83.55521
  },
  {
    "opis_id": 3619,
    "name": "ROAD RANGER #141",
    "city": "Brazil",
    "state": "IN",
    "price_per_gallon": 3.659,
    "latitude": 39.52365,
    "longitude": -87.12502
  },
  {
    "opis_id": 3620,
    "name": "One9 #16",
    "city": "Wilmington",
    "state": "OH",
    "price_per_gallon": 3.14233333,
    "latitude": 39.44534,
    "longitude": -83.82854
  },
  {
    "opis_id": 3645,
    "name": "SNOW SHOE TRAVEL PLAZA",
    "city": "Snow Shoe",
    "state": "PA",
    "price_per_gallon": 3.469,
    "latitude": 41.03089,
    "longitude": -77.94945
  },
  {
    "opis_id": 3678,
    "name": "TIMES MARKET #299",
    "city": "Alice",
    "state": "TX",
    "price_per_gallon": 3.099,
    "latitude": 27.75225,
    "longitude": -98.06972
  },
  {
    "opis_id": 3688,
    "name": "SPEEDWAY #2314",
    "city": "New Baltimore",
    "state": "MI",
    "price_per_gallon": 3.559,
    "latitude": 42.68114,
    "longitude": -82.73686
  },
  {
    "opis_id": 3692,
    "name": "CHARLOTTE TRAVEL PLAZA",
    "city": "Charlotte",
    "state": "NC",
    "price_per_gallon": 3.53233333,
    "latitude": 35.22709,
    "longitude": -80.84313
  },
  {
    "opis_id": 3699,
    "name": "WARREN TRAVEL PLAZA",
    "city": "Warren",
    "state": "IN",
    "price_per_gallon": 3.399,
    "latitude": 40.68282,
    "longitude": -85.4272
  },
  {
    "opis_id": 3702,
    "name": "BEARS DEN TRADING POST #101",
    "city": "Hogansburg",
    "state": "NY",
    "price_per_gallon": 3.649,
    "latitude": 44.97394,
    "longitude": -74.66324
  },
  {
    "opis_id": 3707,
    "name": "SPEEDWAY #4704",
    "city": "Albert Lea",
    "state": "MN",
    "price_per_gallon": 3.299,
    "latitude": 43.64801,
    "longitude": -93.36827
  },
  {
    "opis_id": 3718,
    "name": "SPEEDWAY #4706",
    "city": "Chamberlain",
    "state": "SD",
    "price_per_gallon": 3.299,
    "latitude": 43.81083,
    "longitude": -99.33066
  },
  {
    "opis_id": 3719,
    "name": "KEYSTONE TRUCK STOP",
    "city": "Loretto",
    "state": "PA",
    "price_per_gallon": 3.999,
    "latitude": 40.50313,
    "longitude": -78.6303
  },
  {
    "opis_id": 3725,
    "name": "GENEVA TRUCK STOP",
    "city": "Cochranton",
    "state": "PA",
    "price_per_gallon": 3.81566666,
    "latitude": 41.52005,
    "longitude": -80.04839
  },
  {
    "opis_id": 3728,
    "name": "PLAZA 23 TRUCK STOP",
    "city": "Albany",
    "state": "NY",
    "price_per_gallon": 3.799,
    "latitude": 42.65258,
    "longitude": -73.75623
  },
  {
    "opis_id": 3737,
    "name": "JORDAN'S KWIK STOP #70",
    "city": "West Helena",
    "state": "AR",
    "price_per_gallon": 3.399,
    "latitude": 34.55066,
    "longitude": -90.64177
  },
  {
    "opis_id": 3745,
    "name": "PILOT TRAVEL CENTER #906-TOWN PUMP",
    "city": "Columbus",
    "state": "MT",
    "price_per_gallon": 3.58066666,
    "latitude": 45.63661,
    "longitude": -109.25211
  },
  {
    "opis_id": 3759,
    "name": "EXXON",
    "city": "Newport",
    "state": "AR",
    "price_per_gallon": 4.13233333,
    "latitude": 35.6048,
    "longitude": -91.2818
  },
  {
    "opis_id": 3767,
    "name": "SIMMONS TRAVEL CENTER",
    "city": "Emporia",
    "state": "VA",
    "price_per_gallon": 3.099,
    "latitude": 36.68598,
    "longitude": -77.54248
  },
  {
    "opis_id": 3772,
    "name": "Brake Time Corner Market",
    "city": "Burlington",
    "state": "CO",
    "price_per_gallon": 3.499,
    "latitude": 39.30611,
    "longitude": -102.26936
  },
  {
    "opis_id": 3774,
    "name": "SINCLAIR",
    "city": "Burlington",
    "state": "CO",
    "price_per_gallon": 3.889,
    "latitude": 39.30611,
    "longitude": -102.26936
  },
  {
    "opis_id": 3781,
    "name": "REATTA TRAVEL STOP",
    "city": "Crook",
    "state": "CO",
    "price_per_gallon": 3.38233333,
    "latitude": 40.85888,
    "longitude": -102.80103
  },
  {
    "opis_id": 3783,
    "name": "CIRCLE K #2744095",
    "city": "Denver",
    "state": "CO",
    "price_per_gallon": 3.299,
    "latitude": 39.73915,
    "longitude": -104.9847
  },
  {
    "opis_id": 3794,
    "name": "SPEEDWAY #4701",
    "city": "Jackson",
    "state": "MN",
    "price_per_gallon": 3.299,
    "latitude": 43.62079,
    "longitude": -94.9886
  },
  {
    "opis_id": 3817,
    "name": "FAST MARKET",
    "city": "Colorado Springs",
    "state": "CO",
    "price_per_gallon": 3.159,
    "latitude": 38.83388,
    "longitude": -104.82136
  },
  {
    "opis_id": 3843,
    "name": "ONCUE EXPRESS #61",
    "city": "Perry",
    "state": "OK",
    "price_per_gallon": 3.21566666,
    "latitude": 36.28949,
    "longitude": -97.2881
  },
  {
    "opis_id": 3868,
    "name": "SHORE STOP #279",
    "city": "Greenwood",
    "state": "DE",
    "price_per_gallon": 3.239,
    "latitude": 38.80706,
    "longitude": -75.59132
  },
  {
    "opis_id": 3888,
    "name": "Fics Plaza",
    "city": "Deer Lodge",
    "state": "MT",
    "price_per_gallon": 3.519,
    "latitude": 46.39576,
    "longitude": -112.73004
  },
  {
    "opis_id": 3889,
    "name": "CIRCLE K #2701686",
    "city": "Bradenton",
    "state": "FL",
    "price_per_gallon": 3.439,
    "latitude": 27.49893,
    "longitude": -82.57482
  },
  {
    "opis_id": 3907,
    "name": "SUNOCO",
    "city": "Palisades Park",
    "state": "NJ",
    "price_per_gallon": 3.279,
    "latitude": 40.84816,
    "longitude": -73.99764
  },
  {
    "opis_id": 3908,
    "name": "SEMINOLE TRUCK STOP",
    "city": "Fort Lauderdale",
    "state": "FL",
    "price_per_gallon": 3.699,
    "latitude": 26.12231,
    "longitude": -80.14338
  },
  {
    "opis_id": 3927,
    "name": "MICCOSUKEE SERVICE PLAZA",
    "city": "Fort Lauderdale",
    "state": "FL",
    "price_per_gallon": 3.66566666,
    "latitude": 26.12231,
    "longitude": -80.14338
  },
  {
    "opis_id": 3936,
    "name": "Uncle Petes Truck  Stop",
    "city": "Lebanon",
    "state": "TN",
    "price_per_gallon": 2.989,
    "latitude": 36.20811,
    "longitude": -86.2911
  },
  {
    "opis_id": 3946,
    "name": "Fast Lane",
    "city": "Moberly",
    "state": "MO",
    "price_per_gallon": 3.469,
    "latitude": 39.41837,
    "longitude": -92.43824
  },
  {
    "opis_id": 3949,
    "name": "SUNSTOP #337",
    "city": "Lake City",
    "state": "FL",
    "price_per_gallon": 3.699,
    "latitude": 30.18968,
    "longitude": -82.63929
  },
  {
    "opis_id": 3956,
    "name": "CIRCLE K #2707451",
    "city": "Lake Placid",
    "state": "FL",
    "price_per_gallon": 3.399,
    "latitude": 27.29834,
    "longitude": -81.37124
  },
  {
    "opis_id": 3964,
    "name": "SPEEDWAY #6604",
    "city": "Mattawan",
    "state": "MI",
    "price_per_gallon": 3.489,
    "latitude": 42.20948,
    "longitude": -85.78445
  },
  {
    "opis_id": 3970,
    "name": "EXXON - Pilot #1293",
    "city": "Garland",
    "state": "TX",
    "price_per_gallon": 2.84233333,
    "latitude": 32.91262,
    "longitude": -96.63888
  },
  {
    "opis_id": 3973,
    "name": "LOVES TRAVEL STOP #205",
    "city": "Oklahoma City",
    "state": "OK",
    "price_per_gallon": 3.319,
    "latitude": 35.46756,
    "longitude": -97.51643
  },
  {
    "opis_id": 3974,
    "name": "LOVES TRAVEL STOP #201",
    "city": "Elk City",
    "state": "OK",
    "price_per_gallon": 3.12566666,
    "latitude": 35.41199,
    "longitude": -99.40426
  },
  {
    "opis_id": 3975,
    "name": "SUNSTOP #334",
    "city": "Macclenny",
    "state": "FL",
    "price_per_gallon": 3.459,
    "latitude": 30.28218,
    "longitude": -82.12206
  },
  {
    "opis_id": 3979,
    "name": "PETRO GARY 369",
    "city": "Gary",
    "state": "IN",
    "price_per_gallon": 3.83066666,
    "latitude": 41.59337,
    "longitude": -87.34643
  },
  {
    "opis_id": 4006,
    "name": "MISSILE MART #1",
    "city": "El Dorado",
    "state": "AR",
    "price_per_gallon": 3.499,
    "latitude": 33.20763,
    "longitude": -92.66627
  },
  {
    "opis_id": 4008,
    "name": "BALDWIN TRAVEL PLAZA",
    "city": "Baldwin",
    "state": "WI",
    "price_per_gallon": 3.503,
    "latitude": 44.96663,
    "longitude": -92.37436
  },
  {
    "opis_id": 4025,
    "name": "BP",
    "city": "Anderson",
    "state": "SC",
    "price_per_gallon": 2.909,
    "latitude": 34.50344,
    "longitude": -82.65013
  },
  {
    "opis_id": 4035,
    "name": "PILOT TRAVEL CENTER #430",
    "city": "Russellville",
    "state": "AR",
    "price_per_gallon": 3.375,
    "latitude": 35.27842,
    "longitude": -93.13379
  },
  {
    "opis_id": 4062,
    "name": "DUDLEYS TRUCK STOP RESTAURANT",
    "city": "Rocky Mount",
    "state": "VA",
    "price_per_gallon": 3.299,
    "latitude": 36.99764,
    "longitude": -79.89198
  },
  {
    "opis_id": 4063,
    "name": "STUCKEY'S",
    "city": "Hattiesburg",
    "state": "MS",
    "price_per_gallon": 2.999,
    "latitude": 31.32712,
    "longitude": -89.29034
  },
  {
    "opis_id": 4080,
    "name": "SHELL DBA PILOT DEALER #874",
    "city": "Miami",
    "state": "FL",
    "price_per_gallon": 3.699,
    "latitude": 25.77427,
    "longitude": -80.19366
  },
  {
    "opis_id": 4101,
    "name": "E-Z MART #4411",
    "city": "Pryor",
    "state": "OK",
    "price_per_gallon": 3.099,
    "latitude": 36.30843,
    "longitude": -95.31691
  },
  {
    "opis_id": 4113,
    "name": "ASAP GENERAL STORE #330",
    "city": "Enid",
    "state": "OK",
    "price_per_gallon": 3.08233333,
    "latitude": 36.39559,
    "longitude": -97.87839
  },
  {
    "opis_id": 4115,
    "name": "QUIKTRIP #707",
    "city": "Atlanta",
    "state": "GA",
    "price_per_gallon": 3.34066666,
    "latitude": 33.749,
    "longitude": -84.38798
  },
  {
    "opis_id": 4119,
    "name": "JET FOOD STORE #82",
    "city": "Douglas",
    "state": "GA",
    "price_per_gallon": 3.44066666,
    "latitude": 31.50881,
    "longitude": -82.84987
  },
  {
    "opis_id": 4156,
    "name": "PETRO STOPPING CENTER #305",
    "city": "San Antonio",
    "state": "TX",
    "price_per_gallon": 3.20733333,
    "latitude": 29.42412,
    "longitude": -98.49363
  },
  {
    "opis_id": 4161,
    "name": "EL CHEAPO",
    "city": "Midway",
    "state": "GA",
    "price_per_gallon": 3.52566666,
    "latitude": 31.80577,
    "longitude": -81.43066
  },
  {
    "opis_id": 4164,
    "name": "CIRCLE K #2723897",
    "city": "Thomasville",
    "state": "GA",
    "price_per_gallon": 3.23566666,
    "latitude": 30.83658,
    "longitude": -83.97878
  },
  {
    "opis_id": 4169,
    "name": "TA KINGMAN TRAVEL CENTER",
    "city": "Kingman",
    "state": "AZ",
    "price_per_gallon": 3.899,
    "latitude": 35.18944,
    "longitude": -114.05301
  },
  {
    "opis_id": 4171,
    "name": "PETRO SERVE USA #11",
    "city": "Bemidji",
    "state": "MN",
    "price_per_gallon": 3.499,
    "latitude": 47.47356,
    "longitude": -94.88028
  },
  {
    "opis_id": 4172,
    "name": "FLYING J TRAVEL PLAZA #639",
    "city": "Post Falls",
    "state": "ID",
    "price_per_gallon": 3.76233333,
    "latitude": 47.71796,
    "longitude": -116.95159
  },